     3.03           OBSERVATION DATA    M: Mixed            RINEX VERSION / TYPE
                                        20240711 231447 UTC PGM / RUN BY / DATE 
                                                            MARKER NAME         
                                                            MARKER NUMBER       
                                                            MARKER TYPE         
                                                            OBSERVER / AGENCY   
                                                            REC # / TYPE / VERS 
                                                            ANT # / TYPE        
        0.0000        0.0000        0.0000                  APPROX POSITION XYZ 
        0.0000        0.0000        0.0000                  ANTENNA: DELTA H/E/N
G    8 C1C L1C D1C S1C C2L L2L D2L S2L                      SYS / # / OBS TYPES 
R    8 C1C L1C D1C S1C C2C L2C D2C S2C                      SYS / # / OBS TYPES 
E    8 C1C L1C D1C S1C C7Q L7Q D7Q S7Q                      SYS / # / OBS TYPES 
J    8 C1C L1C D1C S1C C2L L2L D2L S2L                      SYS / # / OBS TYPES 
C    8 C7I L7I D7I S7I C2I L2I D2I S2I                      SYS / # / OBS TYPES 
  2023    06    22    01    09   00.0060000     GPS         TIME OF FIRST OBS   
  2023    06    22    01    13   10.0060000     GPS         TIME OF LAST OBS    
G L1C                                                       SYS / PHASE SHIFT   
G L2L  0.00000                                              SYS / PHASE SHIFT   
R L1C                                                       SYS / PHASE SHIFT   
R L2C                                                       SYS / PHASE SHIFT   
E L1C  0.00000                                              SYS / PHASE SHIFT   
E L7Q  0.00000                                              SYS / PHASE SHIFT   
J L1C                                                       SYS / PHASE SHIFT   
J L2L  0.00000                                              SYS / PHASE SHIFT   
C L7I                                                       SYS / PHASE SHIFT   
C L2I                                                       SYS / PHASE SHIFT   
  0                                                         GLONASS SLOT / FRQ #
 C1C    0.000 C1P    0.000 C2C    0.000 C2P    0.000        GLONASS COD/PHS/BIS 
                                                            END OF HEADER       
> 2023 06 22 01 09 00.0060000  0 35                     
G01  21952219.985   115359707.564       -1450.950          50.000    21952220.572    89890746.264       -1130.669          45.000  
G02  23542846.955   123718520.221       -1989.293          33.000                                                                  
G03  23008205.922   120908917.085        2268.176          40.000    23008206.763    94214759.6122       1766.378          19.000  
G08                                                                  24796487.739   101537655.167       -1911.576          29.000  
G14  22678934.968   119178624.228        1167.523          32.000    22678921.693    92866392.0382        907.571          23.000  
G17                                                                  24868491.521   101832315.1202       1640.719          15.000  
R03                                                                  25592816.559   106555834.474       -1791.541          25.000  
R04  23632456.465   126550755.748         717.256          34.000    23632579.945    98428873.0172        557.892          28.000  
R05  24252485.292   129643472.0832       3382.859          29.000                                                                  
R09  23062682.309   123153420.898       -3913.023          38.000    23062806.628    95786566.887       -3043.385          40.000  
R10  21946670.394   116988233.912        -990.338          32.000                                                                  
R19  23973653.238   128242878.5742      -2583.741          24.000                                                                  
R20  21952585.896   117390331.418        -103.604          26.000    21952574.006    91303550.2072        -80.444          26.000  
R21                                                                  25065311.422   104323088.896        1721.450          26.000  
E02  26717618.188   140402054.472       -2671.810          37.000    26717881.325   107581846.650       -2046.796          27.000  
E15                                                                  27200798.673   109526252.750        1108.518          27.000  
E30  25439401.171   133684956.401        -140.897          37.000    25439404.555   102433965.679        -107.913          42.000  
E34  25227101.827   132569316.038        -543.991          49.000    25227105.434   101579110.913        -416.751          50.000  
E36                                                                  27585921.031   111077058.956       -1729.794          32.000  
J02  38896571.204   204402881.961         312.255          47.000    38896571.870   159274963.322         243.210          47.000  
J03  40437898.632   212502601.340        -618.419          44.000    40437900.881   165586525.435        -481.853          47.000  
J04  38508891.124   202365803.502          -6.282          38.000    38508895.706   157688007.689          -4.597          39.000  
J07  39036493.795   205138170.775        -147.212          36.000    39036496.465   159847931.076        -114.388          44.000  
C01  38675818.220   155731525.529         -71.161          49.000    38675820.788   201395479.950         -91.963          45.000  
C03  39386653.185   158593731.7782        -77.319          30.000    39386651.472   205096629.775         -99.801          33.000  
C04  39151640.452   157647604.338         -91.261          36.000    39151695.782   203873153.6382       -118.290          30.000  
C07  38168875.393   153690192.802         218.525          37.000    38168893.668   198755379.025         281.931          34.000  
C10  39028451.059   157151479.489         394.530          29.000                                                                  
C19                                                                  25888203.592   134806510.808        2183.398          28.000  
C20                                                                  25823583.679   134470176.6242       -214.416          21.000  
C35                                                                  23747591.569   123659951.038         512.327          38.000  
C38                                                                  39705135.256   206755058.2322        932.535          22.000  
C40                                                                  37842307.550   197054829.088         368.622          52.000  
C45                                                                  26462016.014   137794654.488       -3191.842          38.000  
C59                                                                  38960031.721   202875106.488        -125.935          49.000  
> 2023 06 22 01 09 01.0060000  0 35                     
G01  21952496.164   115361158.594       -1451.492          50.000    21952496.629    89891876.935       -1131.003          45.000  
G02  23543224.436   123720509.513       -1989.774          35.000                                                                  
G03  23007774.428   120906648.879        2267.865          40.000    23007767.910    94212962.2853       1769.570          21.000  
G08                                                                  24796949.905   101539567.011       -1912.158          29.000  
G14  22678714.115   119177457.080        1167.029          31.000    22678700.397    92865486.5703        919.358          23.000  
G17                                                                  24868091.055   101830674.5973       1636.131          16.000  
R03                                                                  25593247.271   106557625.501       -1791.022          25.000  
R04  23632323.103   126550038.725         716.524          36.000    23632437.778    98428315.4502        557.067          28.000  
R05  24251858.928   129640087.4321       3383.559          31.000                                                                  
R09  23063414.979   123157333.623       -3913.481          36.000    23063539.313    95789610.156       -3043.491          42.000  
R10  21946856.151   116989224.674        -991.544          31.000                                                                  
R19  23974138.633   128245475.5773      -2581.874          24.000    23974158.953    99746552.5433      -2009.178          27.000  
R20  21952605.484   117390435.046        -103.419          26.000    21952593.680    91303630.3913        -80.707          27.000  
R21  25064898.366   134127333.8333       2214.367          25.000    25064897.790   104321366.630        1722.212          27.000  
E02  26718125.556   140404725.910       -2671.889          37.000    26718389.883   107583893.701       -2047.418          28.000  
E15                                                                  27200523.657   109525144.884        1107.885          28.000  
E30  25439427.609   133685097.326        -141.364          37.000    25439431.878   102434073.656        -108.204          42.000  
E34  25227205.251   132569859.940        -544.374          49.000    25227208.734   101579527.671        -417.108          50.000  
E36                                                                  27586350.394   111078788.765       -1730.124          32.000  
J02  38896511.836   204402569.559         312.115          47.000    38896512.442   159274719.883         243.357          47.000  
J03  40438016.264   212503219.710        -618.488          44.000    40438018.543   165587007.274        -482.015          47.000  
J04  38508892.526   202365809.165          -5.880          38.000    38508896.424   157688012.108          -4.316          39.000  
J07  39036521.764   205138317.543        -146.746          36.000    39036524.370   159848045.445        -114.338          44.000  
C01  38675835.829   155731596.551         -71.057          48.000    38675838.588   201395571.794         -92.106          45.000  
C03  39386672.430   158593808.4123        -76.492          30.000    39386670.485   205096728.9381       -100.021          33.000  
C04  39151663.014   157647695.810         -91.678          36.000    39151718.359   203873271.9523       -118.225          31.000  
C07  38168821.184   153689974.455         218.544          37.000    38168839.234   198755096.638         282.086          34.000  
C10  39028353.633   157151084.691         394.580          29.000                                                                  
C19                                                                  25887787.092   134804327.542        2183.127          28.000  
C20                                                                  25823632.941   134470433.3123       -219.164          23.000  
C35                                                                  23747493.458   123659438.487         512.297          39.000  
C38                                                                  39704955.004   206754119.8633        937.048          22.000  
C40                                                                  37842236.733   197054460.345         368.511          52.000  
C45                                                                  26462628.813   137797845.822       -3191.597          38.000  
C59                                                                  38960055.684   202875232.186        -125.958          49.000  
> 2023 06 22 01 09 02.0060000  0 35                     
G01  21952772.444   115362610.934       -1453.585          49.000    21952773.153    89893008.613       -1132.761          45.000  
G02  23543602.775   123722500.152       -1989.622          41.000                                                                  
G03  23007343.389   120904382.521        2261.660          37.000    23007331.336    94211175.4913       1767.245          33.000  
G08                                                                  24797416.621   101541479.452       -1912.691          34.000  
G14  22678493.076   119176290.787        1164.844          34.000    22678479.393    92864581.0071        908.661          31.000  
G17                                                                  24867691.976   101829040.6093       1634.032          14.000  
R04  23632189.650   126549323.601         713.368          31.000    23632299.395    98427758.1862        556.708          27.000  
R05  24251229.423   129636718.8213       3383.351          30.000    24251207.687   100828472.994        2631.790          24.000  
R09  23064147.454   123161245.071       -3905.870          33.000    23064288.017    95792674.4553      -3044.860          40.000  
R10  21947042.002   116990215.917        -991.656          24.000                                                                  
R11  24298058.034   129841466.2171       2828.594          30.000                                                                  
R19  23974623.794   128248070.5133      -2581.917          23.000    23974647.034    99748596.2143      -2001.753          26.000  
R20  21952624.429   117390537.763        -101.663          31.000                                                                  
R21  25064484.785   134125120.2743       2213.657          26.000    25064480.411   104319644.439        1721.890          28.000  
E02  26718632.083   140407396.475       -2668.226          38.000    26718898.642   107585942.209       -2051.331          28.000  
E15                                                                  27200249.868   109524037.151        1107.060          28.000  
E30  25439453.815   133685238.839        -145.265          35.000    25439459.136   102434181.983        -107.338          38.000  
E34  25227309.350   132570404.656        -546.009          50.000    25227312.688   101579945.101        -418.146          50.000  
E36                                                                  27586779.884   111080519.952       -1735.241          32.000  
J02  38896452.269   204402256.531         313.593          48.000    38896452.810   159274475.956         245.168          45.000  
J03  40438133.915   212503838.231        -618.925          43.000    40438136.295   165587489.244        -482.045          47.000  
J04  38508893.617   202365813.641          -3.499          37.000    38508897.009   157688015.503           0.043          34.000  
J07  39036549.475   205138463.230        -143.377          36.000    39036552.050   159848158.940        -111.217          43.000  
C01  38675853.266   155731666.804         -68.280          47.000    38675856.025   201395662.657         -89.340          46.000  
C03  39386691.557   158593886.1833        -73.529          30.000    39386689.326   205096826.4483        -96.881          33.000  
C04  39151684.953   157647611.3923        -89.071          34.000                                                                  
C07  38168766.901   153689756.093         218.300          29.000    38168780.788   198754857.5993        281.602          32.000  
C10  39028256.697   157150690.609         392.792          29.000                                                                  
C19                                                                  25887369.961   134802145.633        2184.655          29.000  
C20                                                                  25823684.017   134470698.6033       -224.773          24.000  
C35                                                                  23747395.546   123658926.816         511.471          38.000  
C38                                                                  39704767.034   206753140.4653        932.471          24.000  
C40                                                                  37842165.817   197054092.363         366.802          50.000  
C45                                                                  26463241.284   137801035.706       -3187.349          38.000  
C59                                                                  38960079.550   202875356.805        -122.039          49.000  
> 2023 06 22 01 09 03.0060000  0 36                     
G01  21953049.302   115364066.796       -1457.859          49.000    21953050.276    89894143.037       -1136.099          45.000  
G02  23543984.980   123724475.2493      -1997.211          36.000                                                                  
G03  23006912.853   120902142.1683       2260.789          38.000    23006894.001    94209384.5563       1762.911          30.000  
G08                                                                  24797886.065   101543193.6131      -1913.607          33.000  
G14  22678270.519   119175116.0853       1151.044          30.000    22678270.637    92863726.2063        905.498          26.000  
G17                                                                  24867287.776   101827385.3273       1654.863          15.000  
G21  24015833.231   126204054.6103      -2595.752          35.000                                                                  
R04  23632061.746   126548616.8273        705.848          34.000                                                                  
R05  24250586.072   129633280.3973       3391.278          28.000                                                                  
R09  23064883.218   123165189.4503      -3909.863          38.000    23065022.147    95795724.3473      -3043.106          36.000  
R10  21947228.755   116991071.6273       -990.053          37.000                                                                  
R11  24297531.942   129838643.0452       2817.852          29.000                                                                  
R19  23975106.919   128250654.5943      -2591.701          21.000                                                                  
R20  21952643.001   117390637.517         -98.036          32.000    21952629.455    91303780.2263        -76.823          26.000  
R21  25064068.474   134122892.7563       2214.387          31.000    25064068.423   104317921.727        1720.201          28.000  
E02  26719139.502   140410062.148       -2663.724          40.000    26719408.602   107587995.357       -2055.774          27.000  
E15                                                                  27199960.381   109522968.3893       1116.094          26.000  
E30  25439492.049   133685423.9881       -144.371          38.000    25439484.416   102434288.741        -104.961          28.000  
E34  25227412.219   132570951.608        -547.724          51.000    25227416.961   101580364.195        -420.054          52.000  
E36                                                                  27587210.429   111082255.954       -1737.455          32.000  
J02  38896392.061   204401940.277         317.319          46.000    38896392.663   159274229.560         247.121          45.000  
J03  40438251.616   212504456.904        -619.033          44.000    40438253.884   165587971.294        -482.259          48.000  
J04  38508893.331   202365812.188           2.742          34.000    38508896.648   157688014.547           3.091          37.000  
J07  39036576.233   205138603.814        -138.297          36.000    39036578.753   159848268.510        -107.175          42.000  
C01  38675869.837   155731733.595         -64.825          49.000    38675872.552   201395749.037         -84.320          47.000  
C03  39386709.847   158593959.7873        -70.256          29.000    39386707.576   205096921.6653        -89.071          33.000  
C04  39151707.324   157647701.8523        -98.560          35.000    39151742.064   203873395.5013       -146.844          29.000  
C07  38168712.572   153689538.6672        220.799          28.000    38168714.306   198754511.5583        294.434          30.000  
C10  39028161.221   157150231.8443        401.530          28.000                                                                  
C19                                                                  25886952.056   134800152.4393       2183.804          22.000  
C20                                                                  25823727.647   134470926.2873       -223.697          29.000  
C35                                                                  23747307.782   123658483.3013        503.730          36.000  
C38                                                                  39704576.964   206752150.9263        917.232          24.000  
C40                                                                  37842095.402   197053726.631         363.813          51.000  
C45                                                                  26463852.482   137804218.946       -3179.461          40.000  
C59                                                                  38960102.464   202875476.667        -117.508          50.000  
> 2023 06 22 01 09 04.0060000  0 36                     
G01  21953327.056   115365526.904       -1461.994          48.000    21953328.225    89895280.765       -1138.538          46.000  
G02  23544378.004   123726540.9683      -1994.792          33.000                                                                  
G03                                                                  23006454.778    94207585.8803       1757.234          31.000  
G08                                                                  24798354.387   101545108.161       -1914.560          36.000  
G14  22678051.953   119173966.7093       1143.323          30.000    22678052.295    92862832.5251        908.109          30.000  
G17                                                                  24866885.728   101825738.9183       1641.911          17.000  
G21  24016343.255   126206735.3643      -2592.754          34.000                                                                  
R04  23631940.219   126547966.0613        702.649          31.000                                                                  
R05  24249931.968   129629783.7333       3393.667          28.000                                                                  
R09  23065609.966   123169070.2533      -3899.121          35.000    23065749.110    95798743.6863      -3053.418          35.000  
R10  21947406.443   116992062.0072       -989.566          41.000                                                                  
R11  24297005.892   129835832.3743       2811.703          28.000                                                                  
R19  23975592.465   128253252.5573      -2581.338          20.000                                                                  
R20  21952660.156   117390738.7003        -97.298          26.000    21952647.559    91303855.4241        -72.450          27.000  
R21  25063647.532   134120640.6663       2222.315          25.000                                                                  
E02  26719643.852   140412723.414       -2658.660          47.000    26719920.013   107590053.638       -2060.730          28.000  
E15                                                                  27199682.065   109521847.4533       1105.026          26.000  
E30  25439499.087   133685470.3571       -140.491          37.000    25439500.693   102434300.5171       -107.920          43.000  
E34  25227517.505   132571501.377        -551.028          52.000    25227521.575   101580785.414        -421.899          53.000  
E36                                                                  27587642.938   111084005.1371      -1745.361          31.000  
J02  38896331.141   204401620.991         320.761          45.000    38896331.820   159273980.774         250.142          46.000  
J03  40438369.435   212505076.215        -618.434          44.000    40438371.665   165588453.849        -482.688          46.000  
J04  38508898.594   202365615.5773          9.102          31.000    38508895.211   157688009.175           7.678          35.000  
J07  39036602.146   205138739.381        -133.075          37.000    39036604.560   159848374.191        -104.145          42.000  
C01  38675885.639   155731797.011         -61.761          45.000    38675888.436   201395830.985         -81.136          45.000  
C03  39386728.460   158594034.2733        -65.038          33.000    39386724.468   205097009.9093        -83.887          28.000  
C04  39151728.934   157647788.5883        -90.543          34.000    39151743.478   203873402.3033       -118.604          30.000  
C07  38168659.163   153689373.9973        216.874          27.000    38168657.542   198754215.8683        277.628          30.000  
C10  39028068.390   157149857.9893        401.969          26.000                                                                  
C19                                                                  25886516.768   134797885.3883       2181.960          24.000  
C20                                                                  25823777.764   134471186.7443       -221.553          28.000  
C35                                                                  23747210.897   123657958.2313        504.803          40.000  
C38                                                                  39704390.572   206751180.2403        911.475          24.000  
C40                                                                  37842025.636   197053363.615         362.323          52.000  
C45                                                                  26464462.320   137807395.585       -3173.499          40.000  
C59                                                                  38960124.611   202875591.821        -113.052          48.000  
> 2023 06 22 01 09 05.0060000  0 36                     
G01  21953605.297   115366989.646       -1464.309          49.000    21953606.617    89896420.566       -1140.824          45.000  
G02  23544741.162   123728449.1383      -1988.303          40.000                                                                  
G03                                                                  23005998.974    94205719.1453       1748.729          32.000  
G08                                                                  24798822.834   101547032.7943      -1916.801          28.000  
G14  22677835.903   119172831.0093       1160.693          39.000    22677835.245    92861943.5433        911.282          28.000  
G17                                                                  24866485.722   101824101.5383       1632.174          17.000  
G21  24016850.377   126209399.6103      -2580.191          26.000                                                                  
R04  23631812.426   126547281.5373        721.747          31.000                                                                  
R05  24249288.476   129626343.3343       3396.099          28.000                                                                  
R09  23066336.992   123172956.0073      -3893.845          38.000    23066484.867    95801798.9823      -3022.998          35.000  
R10  21947577.014   116993008.5721       -989.373          46.000                                                                  
R11  24296484.063   129833040.4703       2805.336          27.000                                                                  
R19  23976076.591   128255842.6083      -2576.304          19.000                                                                  
R20  21952675.820   117390822.2613        -94.294          28.000    21952671.380    91303931.469         -73.053          41.000  
R21  25063231.671   134118414.5383       2210.805          25.000                                                                  
E02  26720149.132   140415380.734       -2655.864          36.000    26720431.220   107592103.5641      -2063.682          32.000  
E15                                                                  27199401.082   109520716.1423       1106.754          26.000  
E30  25439518.964   133685611.191        -141.275          49.000    25439526.790   102434408.325        -107.536          52.000  
E34  25227621.919   132572052.702        -552.943          46.000    25227625.951   101581207.837        -423.764          44.000  
E36                                                                  27588070.668   111085726.8951      -1752.260          25.000  
J02  38896269.779   204401298.933         323.020          46.000    38896270.500   159273729.791         251.949          45.000  
J03  40438487.213   212505695.253        -618.708          44.000    40438489.520   165588936.267        -482.378          47.000  
J04  38508890.391   202365584.8473         14.941          37.000    38508892.861   157687478.8881         10.357          36.000  
J07  39036627.394   205138870.640        -129.390          39.000    39036629.455   159848476.464        -100.884          41.000  
C01  38675900.678   155731857.412         -59.662          46.000    38675903.489   201395909.133         -76.527          44.000  
C03  39386744.795   158594099.9303        -64.686          30.000    39386741.594   205097099.5593        -96.289          28.000  
C04  39151750.778   157647876.2223        -93.652          31.000    39151749.821   203873435.2523       -103.711          33.000  
C07  38168603.912   153689150.8823        215.266          32.000    38168603.377   198753933.3133        280.072          29.000  
C10  39027975.237   157149482.9563        402.615          25.000                                                                  
C19                                                                  25886077.915   134795600.6443       2196.222          26.000  
C20                                                                  25823832.410   134471471.7023       -229.741          28.000  
C35                                                                  23747116.625   123657467.7183        512.451          40.000  
C38                                                                  39704202.940   206750203.2813        916.347          23.000  
C40                                                                  37841956.092   197053002.243         360.354          49.000  
C45                                                                  26465071.138   137810566.697       -3169.113          40.000  
C59                                                                  38960146.185   202875702.906        -109.599          50.000  
> 2023 06 22 01 09 06.0060000  0 34                     
G01  21953884.050   115368454.691       -1466.158          49.000    21953885.491    89897562.125       -1142.202          47.000  
G02  23545118.705   123730433.8613      -2006.592          36.000                                                                  
G03  23005529.668   120894911.2793       2278.685          44.000    23005533.795    94203844.2231       1776.549          40.000  
G08                                                                  24799297.399   101548976.0753      -1920.201          27.000  
G14  22677617.738   119171685.2763       1167.467          26.000    22677620.888    92861065.6543        902.634          29.000  
G17                                                                  24866085.498   101822462.1913       1658.409          15.000  
G21  24017311.242   126211822.0603      -2606.851          28.000                                                                  
R05  24248635.639   129622853.5623       3413.352          28.000                                                                  
R09  23067064.403   123176836.2833      -3914.326          30.000    23067218.437    95804845.9443      -3040.332          34.000  
R10  21947762.183   116993998.207        -988.566          42.000                                                                  
R19  23976562.896   128258443.7403      -2603.902          20.000                                                                  
R20  21952690.378   117390912.0712        -93.510          26.000    21952691.330    91304003.367         -70.152          40.000  
R21  25062820.252   134116213.3763       2215.653          26.000                                                                  
E02  26720655.672   140418018.1451      -2653.087          44.000    26720942.577   107594168.213       -2065.919          28.000  
E15  27199100.520   142932237.9013       1458.588          32.000    27199118.938   109519580.6543       1125.827          31.000  
E30  25439551.869   133685751.567        -139.141          48.000    25439553.180   102434516.064        -108.870          52.000  
E34  25227727.340   132572605.331        -553.898          41.000    25227732.399   101581631.479        -423.928          47.000  
E36                                                                  27588505.773   111087474.5531      -1750.557          28.000  
J02  38896208.003   204400974.805         324.850          47.000    38896208.843   159273477.212         252.557          45.000  
J03  40438605.007   212506314.365        -618.928          45.000    40438607.276   165589418.707        -482.802          47.000  
J04  38508890.924   202365577.3572         15.139          37.000    38508891.817   157687467.7901         13.578          41.000  
J07  39036651.893   205138998.638        -125.929          38.000    39036653.844   159848576.160         -97.862          43.000  
C01  38675915.157   155731915.633         -57.104          48.000    38675917.988   201395984.430         -73.937          47.000  
C03  39386760.181   158594161.7573        -61.971          33.000    39386757.677   205097182.9991        -76.481          31.000  
C04                                                                  39151771.816   203873549.7113        -97.009          32.000  
C07  38168552.827   153688945.1463        221.260          31.000    38168549.287   198753652.0773        275.712          33.000  
C10  39027883.171   157149112.8093        395.272          25.000                                                                  
C19                                                                  25885643.592   134793338.0643       2201.920          26.000  
C20                                                                  25823877.114   134471704.0063       -218.564          27.000  
C35                                                                  23747030.727   123657020.1393        519.531          33.000  
C38                                                                  39704021.166   206749256.5883        916.426          29.000  
C40                                                                  37841887.089   197052642.096         358.901          38.000  
C45                                                                  26465679.037   137813733.554       -3165.130          41.000  
C59                                                                  38960167.135   202875810.937        -106.571          49.000  
> 2023 06 22 01 09 07.0060000  0 33                     
G01  21954163.141   115369921.841       -1469.185          48.000    21954164.698    89898705.366       -1144.032          46.000  
G02  23545543.885   123732668.1353      -1972.322          36.000                                                                  
G03  23005096.169   120892630.0841       2281.713          48.000    23005093.951    94202067.110        1777.876          43.000  
G08                                                                  24799772.237   101550920.4603      -1926.035          26.000  
G14                                                                  22677395.185    92860141.8153        902.006          26.000  
G17                                                                  24865683.036   101820815.0263       1627.159          13.000  
G21  24017833.012   126214564.0703      -2572.021          37.000                                                                  
R05  24247989.876   129619401.6303       3403.242          29.000    24248024.423   100815233.8603       2631.370          25.000  
R09  23067808.831   123180812.1413      -3894.866          36.000                                                                  
R10  21947944.890   116994988.362        -991.111          43.000                                                                  
R19  23977047.946   128261038.5913      -2601.673          20.000                                                                  
R20  21952706.225   117390985.6613        -92.011          26.000    21952710.963    91304074.311         -68.982          34.000  
E02  26721156.925   140420669.620       -2648.381          40.000    26721457.537   107596235.646       -2069.088          29.000  
E15  27198818.115   142930753.8161       1464.429          28.000    27198848.680   109518492.4813       1096.781          26.000  
E30  25439576.680   133685892.027        -140.891          49.000    25439581.763   102434623.640        -108.602          52.000  
E34  25227833.686   132573159.285        -554.649          45.000    25227839.898   101582055.998        -424.776          44.000  
E36                                                                  27588936.392   111089213.4833      -1752.471          27.000  
J02  38896145.972   204400648.467         327.191          46.000    38896146.810   159273222.963         254.846          46.000  
J03  40438722.905   212506933.303        -619.537          48.000    40438725.038   165589901.003        -482.621          47.000  
J04  38508884.447   202365578.0543         18.997          37.000    38508888.941   157687452.678          18.237          35.000  
J07  39036675.639   205139123.389        -123.258          39.000    39036677.553   159848673.385         -96.443          42.000  
C01  38675929.034   155731971.579         -55.054          47.000    38675931.749   201396056.802         -71.112          47.000  
C03                                                                  39386773.608   205097266.3543        -71.436          27.000  
C04  39151741.683   157647839.5933        -77.953          44.000    39151751.204   203873651.0632       -101.792          46.000  
C07  38168498.263   153688725.9163        212.487          37.000    38168495.528   198753372.0063        275.186          36.000  
C10  39027789.663   157148736.4153        396.148          26.000                                                                  
C19                                                                  25885202.924   134791043.9273       2203.418          32.000  
C20                                                                  25823925.936   134471958.0753       -263.539          25.000  
C35                                                                  23746941.988   123656558.5693        518.750          44.000  
C38                                                                  39703837.855   206748302.4573        905.241          28.000  
C40                                                                  37841818.802   197052280.2333        355.980          41.000  
C45                                                                  26466286.290   137816896.209       -3161.126          41.000  
C59                                                                  38960187.279   202875915.885        -103.658          48.000  
> 2023 06 22 01 09 08.0060000  0 33                     
G01  21954442.631   115371391.184       -1470.336          50.000    21954444.244    89899850.328       -1145.484          46.000  
G02  23545890.502   123734488.7623      -2015.361          38.000                                                                  
G03  23004658.318   120890347.476        2283.851          46.000    23004663.961    94200288.464        1779.504          43.000  
G08                                                                  24800246.735   101552863.7473      -1930.959          24.000  
G14  22677138.517   119169165.7781       1156.366          33.000    22677146.867    92859176.2631        902.985          38.000  
G17                                                                  24865280.902   101819168.2123       1645.264          14.000  
R04  23631416.606   126545162.4333        691.500          35.000    23631465.621    98424219.4863        540.646          31.000  
R05  24247346.850   129615964.3643       3365.349          29.000                                                                  
R09  23068533.587   123184689.3043      -3882.675          36.000    23068562.599    95810428.3903      -3042.041          33.000  
R10  21948131.859   116995978.273        -989.653          46.000                                                                  
R19  23977534.554   128263641.7373      -2615.464          20.000                                                                  
R20  21952723.584   117391077.6183        -91.992          32.000    21952725.798    91304188.2263        -69.073          33.000  
E02  26721661.249   140423317.924       -2647.278          42.000    26721972.603   107598305.903       -2071.861          30.000  
E15  27198533.729   142929269.143        1457.879          43.000    27198579.547   109517408.7513       1092.503          27.000  
E30  25439603.228   133686032.782        -140.788          48.000    25439607.691   102434731.326        -107.066          49.000  
E34  25227939.595   132573717.6061       -558.077          39.000    25227945.906   101582481.420        -425.375          48.000  
E36                                                                  27589364.343   111090936.6821      -1754.680          28.000  
J02  38896083.473   204400320.274         328.623          47.000    38896084.385   159272967.176         256.240          46.000  
J03  40438840.940   212507552.545        -619.236          49.000    40438842.960   165590383.447        -482.781          44.000  
J04  38508873.940   202365523.9151         25.853          39.000    38508879.916   157687434.751          18.280          40.000  
J07  39036698.784   205139245.098        -119.946          37.000    39036700.668   159848768.269         -93.929          43.000  
C01  38675942.375   155732025.262         -52.411          47.000    38675945.035   201396126.264         -68.289          47.000  
C03  39386796.563   158594308.7873        -93.422          32.000    39386788.695   205097344.2213        -79.297          32.000  
C04  39151759.438   157647910.6041        -77.656          40.000    39151767.757   203873528.6863        -98.882          41.000  
C07  38168441.560   153688497.5683        226.783          32.000    38168441.148   198753088.1913        283.203          35.000  
C10  39027695.898   157148358.3103        380.466          27.000    39027712.071   203227538.0613        516.724          26.000  
C19                                                                  25884780.956   134788846.2983       2192.964          31.000  
C20                                                                  25823970.195   134472188.9023       -245.357          25.000  
C35                                                                  23746844.959   123656053.1233        521.612          47.000  
C38                                                                  39703665.199   206747403.5003        902.517          29.000  
C40                                                                  37841750.552   197051922.5972        357.462          37.000  
C45                                                                  26466893.042   137820054.927       -3157.063          44.000  
C59                                                                  38960206.930   202876017.824        -100.730          50.000  
> 2023 06 22 01 09 09.0060000  0 34                     
G01  21954722.413   115372862.396       -1471.550          47.000    21954724.241    89900996.712       -1146.802          46.000  
G02  23546257.638   123736418.4773      -2013.198          33.000                                                                  
G03  23004223.915   120888063.515        2284.350          46.000    23004227.924    94198508.729        1780.457          44.000  
G08                                                                  24800719.923   101554801.1103      -1892.398          23.000  
G14  22676910.219   119168008.605        1156.091          48.000    22676909.045    92858274.616         900.702          48.000  
G17                                                                  24864876.036   101817509.8143       1646.457          18.000  
R04  23631263.703   126544343.2043        690.625          37.000                                                                  
R05  24246658.087   129612283.0903       3398.109          44.000    24246724.314   100809818.8663       2643.402          39.000  
R09  23069255.471   123188546.2883      -3882.497          36.000    23069356.030    95813723.7023      -3034.033          32.000  
R10  21948317.765   116996969.257        -991.836          47.000                                                                  
R19  23978020.814   128266242.6963      -2577.441          20.000                                                                  
R20                                                                  21952742.786    91304251.3213        -68.861          34.000  
R21  25061582.500   134109589.8903       2213.942          26.000                                                                  
E02  26722150.268   140425964.119       -2645.565          39.000    26722488.043   107600378.321       -2073.057          29.000  
E15  27198252.029   142927810.469        1457.612          38.000                                                                  
E30  25439630.529   133686174.048        -141.556          48.000    25439634.231   102434839.700        -110.018          50.000  
E34  25228044.750   132574301.3821       -556.145          45.000    25228051.027   101582908.016        -428.782          37.000  
E36                                                                  27589799.177   111092694.0151      -1753.735          36.000  
J02  38896020.853   204399990.610         329.976          46.000    38896021.612   159272710.297         257.615          45.000  
J03  40438959.220   212508171.806        -619.483          50.000    40438960.706   165590866.106        -483.020          45.000  
J04  38508868.863   202365498.165          26.875          38.000    38508875.965   157687414.665          21.614          41.000  
J07  39036721.517   205139364.781        -119.534          36.000    39036723.376   159848861.517         -92.345          42.000  
C01  38675955.246   155732077.246         -51.300          48.000    38675958.020   201396193.474         -67.157          48.000  
C03  39386810.111   158594362.7823        -56.563          31.000    39386804.075   205097424.8543        -94.629          29.000  
C04  39151777.571   157647987.098         -75.553          43.000    39151785.198   203873626.5291        -97.192          45.000  
C07  38168378.357   153688242.5113        212.524          36.000    38168387.815   198752811.2233        286.244          39.000  
C10  39027597.394   157147962.2083        396.318          26.000                                                                  
C19                                                                  25884278.262   134786459.5953       2196.734          44.000  
C20                                                                  25824011.934   134472406.4003       -218.745          26.000  
C35                                                                  23746743.706   123655530.3621        522.498          45.000  
C38                                                                  39703494.416   206746513.4633        899.135          22.000  
C40                                                                  37841688.015   197051591.9823        356.889          42.000  
C45                                                                  26467499.446   137823210.899       -3155.120          44.000  
C59                                                                  38960225.661   202876117.450         -98.466          48.000  
> 2023 06 22 01 09 10.0060000  0 33                     
G01  21955002.331   115374333.976       -1471.963          48.000    21955004.319    89902143.395       -1146.574          47.000  
G03  23003789.147   120885778.702        2284.462          45.000    23003792.180    94196728.419        1780.094          44.000  
G08                                                                  24801183.372   101556699.5123      -1894.801          25.000  
G14  22676690.057   119166852.650        1155.627          47.000    22676688.708    92857373.898         900.317          46.000  
G17                                                                  24864473.159   101815860.0383       1617.191          19.000  
R04  23631127.319   126543613.3093        697.607          35.000    23631187.224    98423059.2423        568.516          30.000  
R05  24245969.678   129608602.4283       3398.780          45.000    24246020.622   100806903.2263       2644.219          38.000  
R09  23069978.497   123192397.7953      -3881.612          38.000                                                                  
R10  21948504.013   116997961.461        -993.257          44.000                                                                  
R19  23978506.551   128268840.6083      -2602.621          20.000                                                                  
R20                                                                  21952765.959    91304348.1373        -69.513          29.000  
R21  25061164.206   134107351.3453       2201.772          26.000                                                                  
E02  26722674.222   140428609.109       -2645.946          45.000    26723003.139   107602459.3703      -2081.495          26.000  
E15  27197995.790   142926433.0153       1461.157          27.000    27197990.198   109515028.4511       1092.210          35.000  
E30  25439657.445   133686315.945        -142.880          47.000    25439661.141   102434948.357        -109.635          50.000  
E34  25228162.055   132574886.7243       -541.918          36.000    25228157.018   101583333.6133       -426.959          34.000  
E36  27590249.290   144987738.3103      -2256.504          25.000    27590234.535   111094436.3341      -1755.069          33.000  
J02  38895958.021   204399660.153         330.636          45.000    38895958.539   159272452.807         257.492          45.000  
J03  40439077.201   212508790.821        -619.222          48.000    40439078.469   165591348.456        -482.750          47.000  
J04  38508866.873   202365470.917          25.696          36.000    38508870.451   157687393.476          19.929          40.000  
J07  39036744.039   205139483.654        -118.852          36.000    39036746.000   159848954.155         -92.817          43.000  
C01  38675967.883   155732128.251         -51.013          45.000    38675970.895   201396259.382         -66.967          48.000  
C03  39386825.118   158594423.5853        -67.090          32.000    39386822.638   205097521.8053        -77.246          29.000  
C04  39151796.847   157648062.001         -74.725          45.000    39151802.105   203873723.413         -96.153          44.000  
C07  38168312.765   153688011.9523        211.611          46.000    38168319.424   198752455.0803        273.663          46.000  
C10  39027493.681   157147550.1683        403.760          37.000                                                                  
C19                                                                  25883854.616   134784022.8931       2193.958          40.000  
C20                                                                  25824067.608   134472695.9393       -234.709          27.000  
C35                                                                  23746642.142   123655008.237         521.688          44.000  
C38                                                                  39703318.701   206745598.4593        896.864          23.000  
C40                                                                  37841620.892   197051249.4871        356.982          43.000  
C45                                                                  26468105.668   137826366.144       -3155.916          44.000  
C59                                                                  38960244.431   202876215.983         -98.811          48.000  
> 2023 06 22 01 09 11.0060000  0 33                     
G01  21955282.407   115375806.124       -1472.784          47.000    21955284.505    89903290.538       -1147.519          44.000  
G02  23547041.749   123740539.0033      -2005.762          36.000                                                                  
G03  23003354.532   120883495.068        2283.041          42.000    23003356.840    94194948.990        1779.179          43.000  
G08                                                                  24801624.912   101558506.7621      -1916.567          38.000  
G14  22676469.875   119165698.114        1154.181          47.000    22676469.653    92856474.287         898.511          46.000  
G17                                                                  24864069.274   101814206.3663       1648.961          20.000  
G21  24019781.358   126224802.7713      -2622.058          37.000                                                                  
R04  23631005.489   126542961.2653        729.150          32.000    23631040.629    98422461.0143        533.093          31.000  
R05  24245287.595   129605115.2692       3398.500          45.000    24245327.763   100804260.1772       2643.129          38.000  
R09  23070703.935   123196283.5843      -3883.829          39.000    23070846.939    95819916.2143      -3018.701          34.000  
R10  21948690.348   116998955.623        -994.509          40.000                                                                  
R19  23978994.763   128271452.4403      -2601.607          20.000                                                                  
E02  26723174.470   140431255.240       -2647.022          43.000                                                                  
E15  27197730.695   142925038.5721       1424.022          34.000                                                                  
E30  25439684.256   133686459.056        -144.030          47.000    25439688.306   102435058.072        -110.753          48.000  
E34  25228256.987   132575390.2721       -557.813          45.000    25228261.236   101583759.2411       -427.543          48.000  
E36  27590679.361   144989998.7703      -2293.289          31.000    27590668.540   111096188.8321      -1757.147          27.000  
J02  38895895.329   204399330.688         328.323          45.000    38895895.773   159272196.050         256.658          45.000  
J03  40439195.338   212509410.362        -620.188          48.000    40439196.214   165591831.185        -482.935          46.000  
J04  38508861.872   202365444.810          23.928          38.000    38508866.142   157687373.038          21.268          39.000  
J07  39036766.954   205139603.740        -120.946          37.000    39036768.871   159849047.723         -93.923          42.000  
C01  38675980.774   155732179.965         -52.985          48.000    38675983.942   201396326.227         -68.235          48.000  
C03  39386836.220   158594467.8333        -69.971          28.000    39386840.317   205097613.0933       -152.881          28.000  
C04  39151815.755   157648137.388         -75.613          47.000    39151820.885   203873820.926         -97.821          42.000  
C07  38168261.200   153687801.0602        211.217          50.000    38168267.201   198752182.4362        271.475          49.000  
C10  39027393.499   157147140.9373        394.092          43.000    39027398.802   203225908.6212        516.060          42.000  
C19                                                                  25883431.601   134781827.131        2195.379          41.000  
C20                                                                  25824113.371   134472934.1263       -194.165          27.000  
C35                                                                  23746543.145   123654481.3503        511.641          35.000  
C38                                                                  39703140.715   206744671.6653        900.168          22.000  
C40                                                                  37841551.338   197050892.565         355.867          42.000  
C45                                                                  26468712.191   137829522.755       -3157.372          45.000  
C59                                                                  38960263.409   202876315.492         -99.844          49.000  
> 2023 06 22 01 09 12.0060000  0 35                     
G01  21955562.530   115377278.482       -1472.439          45.000    21955564.687    89904437.794       -1147.604          46.000  
G02  23547422.701   123742540.3193      -2015.616          40.000                                                                  
G03  23002920.171   120881212.725        2282.403          43.000    23002924.437    94193170.528        1777.931          44.000  
G08  24802032.210   130335558.2243      -2458.307          41.000    24802037.919   101560421.880       -1916.461          37.000  
G14  22676249.937   119164544.309        1153.632          48.000    22676249.218    92855575.203         898.273          45.000  
G17                                                                  24863667.805   101812562.6263       1635.259          20.000  
G21  24020260.195   126227425.6372      -2624.457          41.000                                                                  
R04  23630867.185   126542220.6713        717.395          24.000    23630916.614    98421932.3383        537.050          30.000  
R05  24244647.557   129601717.6212       3397.332          47.000    24244674.703   100801326.0653       2642.278          40.000  
R09  23071430.508   123200168.8512      -3885.191          42.000    23071500.771    95822900.8523      -3022.028          37.000  
R10  21948878.637   116999873.7113       -999.121          30.000                                                                  
R19  23979484.226   128274070.4083      -2611.150          20.000                                                                  
R20                                                                  21952804.071    91304506.5513        -84.722          25.000  
R21  25060338.071   134102930.1693       2207.844          26.000                                                                  
E02  26723675.578   140433902.502       -2647.342          42.000                                                                  
E15  27197459.919   142923616.1851       1424.670          33.000    27197466.589   109512925.1691       1089.291          40.000  
E30  25439711.673   133686602.989        -144.867          43.000    25439715.899   102435168.280        -110.338          46.000  
E34  25228358.543   132575948.239        -557.867          46.000    25228368.337   101584186.705        -427.706          53.000  
E36  27591098.175   144992222.0891      -2289.031          37.000    27591104.706   111097942.589       -1754.590          37.000  
J02  38895832.873   204399001.903         327.993          46.000    38895833.055   159271939.869         255.789          46.000  
J03  40439313.486   212510030.009        -619.692          47.000    40439314.121   165592314.042        -482.906          46.000  
J04  38508856.723   202365419.525          24.698          37.000    38508862.318   157687353.3341         20.865          39.000  
J07  39036790.016   205139724.640        -120.830          36.000    39036791.826   159849141.927         -94.181          42.000  
C01  38675993.729   155732232.220         -53.741          47.000    38675996.895   201396393.795         -67.597          46.000  
C03  39386855.459   158594545.8483        -94.678          28.000                                                                  
C04  39151834.824   157648213.294         -77.014          43.000    39151838.533   203873919.072         -97.984          43.000  
C07  38168208.266   153687558.3543        210.092          48.000    38168215.855   198751915.2991        272.637          48.000  
C10  39027286.319   157146717.7821        384.556          47.000    39027289.806   203225345.6651        497.085          47.000  
C19                                                                  25883009.726   134779632.247        2193.436          43.000  
C20                                                                  25824183.542   134473299.9373       -197.266          35.000  
C35                                                                  23746445.487   123653973.0783        510.840          42.000  
C38                                                                  39702966.486   206743765.0283        895.509          21.000  
C40                                                                  37841477.840   197050536.477         356.009          46.000  
C45                                                                  26469318.870   137832680.420       -3157.902          44.000  
C59                                                                  38960282.615   202876415.685        -101.058          50.000  
> 2023 06 22 01 09 13.0060000  0 36                     
G01  21955842.936   115378751.952       -1475.119          48.000    21955845.003    89905585.965       -1149.419          44.000  
G02  23547807.444   123744562.6103      -2005.664          37.000                                                                  
G03  23002485.885   120878931.129        2281.646          45.000    23002490.245    94191392.610        1778.601          43.000  
G08  24802501.745   130338017.8482      -2461.599          42.000    24802503.631   101562338.466       -1918.087          37.000  
G14  22676031.235   119163347.9263       1154.102          45.000    22676030.169    92854676.155         901.599          50.000  
G17                                                                  24863269.456   101810931.6583       1626.255          19.000  
G21  24020757.692   126230048.9772      -2626.692          32.000                                                                  
R04  23630756.580   126541627.9633        699.334          31.000                                                                  
R05  24244013.998   129598148.2653       3374.121          36.000    24244030.993   100798630.7533       2638.574          36.000  
R09  23072159.981   123204053.2291      -3884.735          45.000    23072186.644    95825922.3922      -3020.783          42.000  
R10  21949074.090   117000915.2463      -1024.410          25.000                                                                  
R11  24292289.750   129810630.9893       2802.725          24.000                                                                  
R19  23979972.011   128276679.6643      -2602.227          19.000    23979985.992    99770808.8643      -2033.104          28.000  
R21  25059923.336   134100711.5843       2200.556          27.000                                                                  
E02  26724178.096   140436550.048       -2647.243          42.000    26724185.811   107607221.8241      -2028.919          48.000  
E15  27197191.064   142922173.806        1420.612          32.000    27197193.880   109511829.3883       1094.713          34.000  
E30  25439739.574   133686733.7003       -146.394          30.000    25439743.201   102435279.502        -113.500          30.000  
E34  25228467.879   132576506.695        -559.340          48.000    25228472.553   101584614.597        -428.426          51.000  
E36                                                                  27591542.228   111099696.602       -1753.801          35.000  
J02  38895770.270   204398673.087         328.234          46.000    38895770.461   159271683.628         256.628          45.000  
J03  40439431.545   212510649.808        -620.448          48.000    40439432.001   165592796.998        -483.244          46.000  
J04  38508851.801   202365394.838          25.177          38.000    38508857.589   157687333.719          19.282          42.000  
J07  39036812.690   205139845.007        -120.245          35.000    39036814.688   159849235.733         -93.660          43.000  
C01  38676006.771   155732284.434         -51.617          47.000    38676009.889   201396461.361         -66.473          43.000  
C03  39386868.462   158594598.4973        -63.086          28.000                                                                  
C04  39151853.837   157648289.543         -76.951          44.000    39151859.013   203874017.723        -100.279          43.000  
C07  38168155.754   153687347.4522        210.574          49.000    38168163.869   198751642.573         272.853          49.000  
C08  40747676.307   164074007.2483        898.076          29.000                                                                  
C10  39027189.594   157146332.906         384.586          48.000    39027192.654   203224847.873         498.271          44.000  
C19                                                                  25882590.462   134777438.680        2194.071          45.000  
C20                                                                  25824230.137   134473542.3093       -207.063          30.000  
C35                                                                  23746336.238   123653423.6631        496.122          46.000  
C38                                                                  39702790.356   206742847.2643        897.537          19.000  
C40                                                                  37841407.933   197050181.357         353.770          50.000  
C45                                                                  26469925.470   137835837.396       -3155.762          42.000  
C59                                                                  38960301.790   202876515.837         -99.509          49.000  
> 2023 06 22 01 09 14.0060000  0 34                     
G01  21956123.749   115380227.683       -1477.092          49.000    21956125.812    89906735.887       -1150.791          44.000  
G02  23548198.582   123746618.1903      -1978.857          37.000                                                                  
G03  23002051.673   120876649.625        2280.499          46.000    23002055.644    94189614.761        1778.194          42.000  
G08  24802968.608   130340479.5502      -2462.393          44.000    24802976.161   101564256.696       -1918.239          40.000  
G14  22675810.871   119162192.6843       1152.032          47.000    22675811.317    92853653.8151        896.881          46.000  
G17                                                                  24862872.132   101809304.6583       1621.023          18.000  
R04  23630636.106   126540982.8433        712.121          30.000    23630664.837    98420884.3313        572.593          28.000  
R05  24243386.144   129594792.4753       3390.212          43.000    24243395.126   100795987.1221       2640.930          40.000  
R09  23072886.236   123207936.015       -3882.192          47.000    23072896.162    95828942.3562      -3019.882          44.000  
R10  21949270.148   117001960.2443      -1029.968          25.000                                                                  
R11  24291768.691   129807846.0753       2794.437          25.000                                                                  
R19  23980458.775   128279284.0323      -2612.607          20.000    23980474.822    99772843.4453      -2038.746          27.000  
R21  25059492.129   134098403.8323       2188.241          25.000                                                                  
E02  26724682.241   140439196.531       -2645.697          42.000    26724689.343   107609249.625       -2027.333          48.000  
E27                                                                  28396057.969   114339154.240        1705.215          28.000  
E30                                                                  25439779.505   102435450.0003       -125.872          22.000  
E34  25228573.439   132577066.479        -561.190          49.000    25228580.179   101585043.534        -429.802          52.000  
E36                                                                  27591977.562   111101459.2131      -1759.790          26.000  
J02  38895707.426   204398343.437         330.131          43.000    38895707.793   159271426.842         256.475          46.000  
J03  40439549.702   212511269.997        -620.588          48.000    40439550.043   165593280.278        -484.069          46.000  
J04  38508846.597   202365367.821          28.416          36.000    38508852.244   157687312.734          20.411          40.000  
J07  39036835.202   205139963.548        -118.214          35.000    39036837.243   159849328.035         -91.772          43.000  
C01  38676019.516   155732335.834         -50.995          47.000    38676022.975   201396527.954         -66.919          48.000  
C03  39386873.515   158594618.9463        -13.037          27.000                                                                  
C04  39151872.815   157648365.538         -75.862          44.000    39151877.953   203874115.980         -98.141          45.000  
C07  38168103.847   153687137.0242        210.217          49.000    38168111.560   198751370.427         271.602          47.000  
C10  39027093.808   157145948.310         384.697          47.000    39027097.057   203224350.561         497.179          45.000  
C19                                                                  25882169.408   134775245.824        2193.069          43.000  
C20                                                                  25824269.821   134473749.2823       -190.612          29.000  
C35                                                                  23746240.818   123652928.734         493.854          51.000  
C38                                                                  39702614.581   206741932.0463        915.356          19.000  
C40                                                                  37841340.944   197049827.364         353.391          51.000  
C45                                                                  26470531.328   137838991.807       -3152.766          38.000  
C59  38960157.535   156876409.7283       -124.016          27.000    38960320.587   202876614.537         -97.478          47.000  
> 2023 06 22 01 09 15.0060000  0 33                     
G01  21956404.926   115381705.043       -1477.792          48.000    21956406.928    89907887.108       -1151.217          44.000  
G03  23001617.491   120874367.245        2284.070          44.000    23001621.091    94187792.2701       1780.587          43.000  
G08  24803432.732   130342942.5952      -2462.118          42.000    24803443.659   101566176.013       -1919.098          39.000  
G14  22675591.246   119161039.9992       1152.667          47.000    22675591.700    92852755.591         898.401          46.000  
G17                                                                  24862475.335   101807679.5633       1602.286          16.000  
R04  23630505.391   126540282.6423        677.206          31.000                                                                  
R05  24242753.395   129591410.4133       3362.110          37.000    24242759.475   100793346.666        2641.766          40.000  
R09  23073612.815   123211816.466       -3878.754          47.000    23073618.511    95831960.4922      -3016.438          45.000  
R10  21949468.834   117003010.2663      -1026.781          28.000                                                                  
R11  24291246.973   129805058.2023       2797.848          25.000                                                                  
R19  23980947.203   128281896.3063      -2632.900          21.000                                                                  
E02  26725185.682   140441798.4171      -2644.001          40.000    26725192.493   107611276.228       -2026.130          49.000  
E15                                                                  27196657.479   109509669.6281       1083.037          30.000  
E30  25439816.471   133687137.4201       -182.485          23.000    25439822.977   102435624.4331       -132.299          29.000  
E34  25228680.835   132577627.045        -560.552          48.000    25228686.709   101585473.032        -429.541          52.000  
E36                                                                  27592426.544   111103266.7833      -1763.734          25.000  
J02  38895644.325   204398012.493         332.281          44.000    38895644.859   159271168.908         258.990          45.000  
J03  40439667.778   212511890.023        -619.447          48.000    40439668.055   165593763.391        -482.518          46.000  
J04  38508841.049   202365338.987          28.611          36.000    38508846.664   157687290.138          23.550          41.000  
J07  39036857.389   205140079.732        -113.920          36.000    39036859.337   159849418.594         -89.076          43.000  
C01  38676031.913   155732385.903         -48.828          46.000    38676035.030   201396592.614         -63.747          45.000  
C03  39386874.789   158594623.6213        -26.953          27.000                                                                  
C04  39151891.757   157648444.1171        -71.582          42.000    39151896.910   203874213.119         -96.129          44.000  
C07  38168051.274   153686926.2081        210.211          48.000    38168059.651   198751098.969         271.854          48.000  
C08  40747241.085   164072254.0253        902.371          28.000                                                                  
C10  39026999.815   157145564.548         384.092          42.000    39027000.646   203223853.601         496.799          37.000  
C19                                                                  25881748.033   134773053.195        2194.004          44.000  
C20                                                                  25824293.102   134473870.2503       -205.833          28.000  
C35                                                                  23746146.394   123652435.022         493.566          52.000  
C38                                                                  39702438.940   206741017.2373        900.617          17.000  
C40                                                                  37841272.718   197049474.576         353.510          50.000  
C45                                                                  26471136.444   137842143.532       -3149.777          38.000  
C59                                                                  38960339.244   202876711.299         -95.679          49.000  
> 2023 06 22 01 09 16.0060000  0 34                     
G01  21956686.357   115383183.943       -1479.857          49.000    21956688.341    89909039.528       -1153.179          45.000  
G02  23549000.731   123750833.7073      -1969.947          34.000                                                                  
G03  23001182.872   120872084.084        2283.243          45.000    23001186.453    94186013.324        1778.446          45.000  
G08  24803900.251   130345406.6822      -2467.424          41.000    24803921.127   101567910.2773      -1920.584          36.000  
G14  22675372.424   119159890.1912       1145.661          27.000    22675373.385    92851862.7843        892.471          27.000  
G17                                                                  24862081.767   101806068.3533       1631.595          15.000  
R04  23630310.104   126539355.8453        678.290          46.000    23630273.598    98419259.6583        527.119          48.000  
R05  24242120.230   129588025.5403       3361.719          42.000    24242123.929   100790706.167        2644.611          39.000  
R09  23074339.076   123215694.844       -3877.888          48.000    23074343.366    95834976.9992      -3016.375          47.000  
R10  21949663.998   117004060.1923      -1029.130          27.000                                                                  
R11  24290726.700   129802278.0233       2799.197          25.000                                                                  
R19  23981436.153   128284512.6983      -2622.809          21.000    23981452.922    99776912.8403      -2043.774          25.000  
R20  21952874.973   117391887.8373       -131.941          29.000                                                                  
E02  26725688.842   140444441.629       -2643.744          43.000    26725696.303   107613301.537       -2025.488          49.000  
E30                                                                  25439857.828   102435764.4943       -136.491          21.000  
E34  25228788.148   132578188.454        -562.112          48.000    25228793.409   101585903.217        -430.886          52.000  
E36                                                                  27592867.305   111105041.8293      -1765.291          24.000  
J02  38895581.057   204397680.228         331.924          46.000    38895581.611   159270910.040         259.090          45.000  
J03  40439785.762   212512509.952        -620.222          48.000    40439786.080   165594246.483        -483.252          46.000  
J04  38508834.908   202365307.636          31.986          37.000    38508840.482   157687265.765          24.925          40.000  
J07  39036879.131   205140193.872        -112.750          36.000    39036881.100   159849507.554         -88.441          43.000  
C01  38676044.037   155732434.576         -48.712          48.000    38676047.175   201396655.505         -62.827          46.000  
C03  39386884.594   158594663.5693        -20.654          26.000                                                                  
C04  39151910.151   157648517.738         -72.826          45.000    39151915.379   203874308.966         -95.051          44.000  
C07  38167998.999   153686716.180         209.431          50.000    38168007.170   198750827.338         270.974          49.000  
C08  40747019.385   164071361.5983        906.930          27.000                                                                  
C10  39026903.955   157145180.574         383.530          43.000    39026906.130   203223357.553         496.579          39.000  
C19                                                                  25881326.819   134770859.7663       2194.301          44.000  
C20                                                                  25824315.743   134473988.7603       -230.357          33.000  
C35                                                                  23746052.260   123651941.649         492.465          51.000  
C38                                                                  39702264.871   206740110.9003        891.954          16.000  
C40                                                                  37841204.946   197049122.051         351.547          50.000  
C45                                                                  26471741.015   137845292.662       -3147.937          37.000  
C59                                                                  38960357.460   202876806.177         -93.890          48.000  
> 2023 06 22 01 09 17.0060000  0 30                     
G01  21956968.017   115384663.912       -1480.279          49.000    21956969.972    89910192.735       -1153.752          45.000  
G02  23549374.788   123752799.3053      -1983.350          36.000                                                                  
G03  23000748.270   120869800.667        2282.763          46.000    23000751.730    94184234.031        1779.031          44.000  
G08  24804374.797   130347854.6853      -2465.091          37.000    24804396.414   101569855.6341      -1922.314          36.000  
G14  22675156.861   119158752.9083       1122.197          23.000    22675157.594    92850979.3113        882.838          24.000  
G17                                                                  24861680.582   101804425.2933       1662.845          11.000  
R03                                                                  25600097.059   106586140.7093      -1843.873          25.000  
R04  23630165.871   126538464.3293        672.119          44.000    23630148.213    98418732.7962        526.768          45.000  
R05  24241487.016   129584640.6923       3394.482          40.000    24241489.917   100788065.4553       2639.209          41.000  
R09  23075065.260   123219572.347       -3878.183          48.000    23075069.382    95837992.3551      -3016.529          47.000  
R19  23981926.009   128287132.3953      -2624.817          21.000    23981945.161    99778960.4153      -2054.441          24.000  
R20  21952896.748   117392025.7562       -131.525          40.000    21952908.682    91304969.481        -102.872          42.000  
E02  26726191.760   140447084.010       -2642.736          42.000    26726198.516   107615326.210       -2024.568          48.000  
E30                                                                  25439893.339   102435907.7313       -141.408          21.000  
E34  25228895.167   132578750.506        -562.093          49.000    25228900.741   101586333.849        -430.140          53.000  
E36                                                                  27593297.539   111106774.0223      -1765.206          24.000  
J02  38895517.685   204397347.364         332.380          46.000    38895518.307   159270650.642         259.086          45.000  
J03  40439903.807   212513129.874        -619.904          47.000    40439904.048   165594729.549        -483.279          46.000  
J04  38508828.646   202365275.197          32.481          39.000    38508834.180   157687240.556          24.982          38.000  
J07  39036900.872   205140307.070        -114.209          36.000    39036902.608   159849595.703         -88.108          43.000  
C01  38676055.961   155732482.514         -48.602          48.000    38676059.214   201396717.460         -61.431          45.000  
C04  39151928.430   157648591.355         -73.303          44.000    39151933.749   203874404.125         -94.697          43.000  
C07  38167947.165   153686507.177         210.024          29.000    38167955.520   198750560.1223        270.660          25.000  
C10  39026808.750   157144786.1943        381.314          26.000                                                                  
C19                                                                  25880905.499   134768666.5363       2192.463          40.000  
C20                                                                  25824295.538   134473890.8003       -253.126          41.000  
C35                                                                  23745956.973   123651449.024         491.953          50.000  
C40                                                                  37841137.125   197048770.002         351.821          51.000  
C45                                                                  26472345.377   137848440.427       -3147.671          39.000  
C59                                                                  38960375.438   202876900.085         -93.781          48.000  
> 2023 06 22 01 09 18.0060000  0 30                     
G01  21957249.635   115386143.491       -1479.038          48.000    21957251.401    89911345.605       -1151.958          45.000  
G03  23000314.075   120867518.641        2280.001          45.000    23000317.105    94182455.759        1776.910          44.000  
G08  24804846.239   130350345.8583      -2463.623          38.000    24804872.922   101571807.4571      -1915.641          37.000  
G14                                                                  22674945.948    92850112.6843        864.497          21.000  
R03                                                                  25600545.864   106588008.8903      -1837.579          25.000  
R04  23630030.598   126537740.5393        692.334          47.000    23630023.558    98418215.6253        528.655          43.000  
R05  24240851.480   129581243.2753       3391.804          44.000    24240854.400   100785424.0263       2639.510          41.000  
R09  23075791.754   123223451.614       -3881.196          45.000    23075796.522    95841009.571       -3018.673          44.000  
R19  23982416.386   128289755.6223      -2624.575          20.000                                                                  
R20  21952916.254   117392157.0042       -130.196          42.000    21952928.412    91305071.516        -101.243          43.000  
E02  26726693.784   140449727.737       -2645.655          41.000    26726701.588   107617351.929       -2026.833          48.000  
E30                                                                  25439928.782   102436051.1153       -135.401          21.000  
E34  25229001.996   132579312.335        -561.586          48.000    25229007.212   101586764.304        -429.790          53.000  
E36                                                                  27593736.642   111108542.8003      -1761.871          26.000  
J02  38895454.584   204397015.297         330.658          46.000    38895455.057   159270391.871         258.365          45.000  
J03  40440021.791   212513749.673        -619.814          47.000    40440022.005   165595212.495        -482.906          46.000  
J04  38508822.737   202365244.172          29.480          38.000    38508828.207   157687216.324          23.707          40.000  
J07  39036922.589   205140421.358        -116.048          35.000    39036924.430   159849684.788         -90.112          43.000  
C01  38676068.072   155732531.195         -50.439          48.000    38676071.239   201396780.505         -65.219          47.000  
C03  39386980.751   158595050.2043       -137.646          28.000    39386984.731   205098365.1603       -133.109          28.000  
C04  39151946.952   157648665.371         -73.424          43.000    39151952.142   203874499.920         -95.737          45.000  
C07  38167896.886   153686304.4893        200.139          20.000    38167907.470   198750309.4603        253.092          23.000  
C08  40746565.923   164069540.6643        904.224          28.000                                                                  
C10  39026717.544   157144419.1613        373.835          24.000                                                                  
C19                                                                  25880484.220   134766473.1273       2191.816          45.000  
C20                                                                  25824342.984   134474130.2923       -255.011          41.000  
C35                                                                  23745862.911   123650956.191         492.796          36.000  
C40                                                                  37841069.193   197048417.511         352.554          49.000  
C45                                                                  26472950.101   137851589.868       -3150.695          41.000  
C59                                                                  38960393.625   202876995.033         -96.176          48.000  
> 2023 06 22 01 09 19.0060000  0 31                     
G01  21957530.844   115387621.678       -1477.816          49.000    21957532.700    89912497.497       -1152.195          45.000  
G02  23550128.284   123756759.1483      -1992.051          31.000                                                                  
G03  22999880.334   120865238.437        2277.518          46.000    22999882.821    94180678.961        1774.935          42.000  
G08  24805324.571   130352860.2753      -2462.598          33.000    24805354.667   101573780.3641      -1915.155          31.000  
G14                                                                  22674732.736    92849239.5563        888.664          15.000  
R03                                                                  25600986.588   106589844.1743      -1845.732          25.000  
R04  23629904.689   126537066.0073        737.669          29.000    23629898.131    98417690.9263        537.402          35.000  
R05  24240217.346   129577853.5163       3383.301          39.000    24240221.661   100782792.2413       2640.869          35.000  
R09  23076518.930   123227333.868       -3884.015          47.000    23076523.556    95844029.109       -3021.166          45.000  
R19  23982905.749   128292373.7683      -2616.486          19.000                                                                  
R20  21952941.692   117392244.4503       -137.501          29.000    21952946.480    91305172.236         -93.667          28.000  
R21  25058138.791   134091162.1113       2234.424          30.000                                                                  
E02  26727197.869   140452373.747       -2647.669          44.000    26727205.189   107619379.389       -2028.626          48.000  
E34  25229108.846   132579872.970        -560.613          49.000    25229113.918   101587193.941        -429.541          52.000  
E36                                                                  27594168.627   111110282.2433      -1762.512          25.000  
J02  38895391.647   204396684.472         328.936          44.000    38895392.238   159270134.091         256.624          46.000  
J03  40440139.614   212514368.965        -619.928          48.000    40440139.812   165595695.056        -482.932          46.000  
J04  38508817.308   202365215.524          27.081          38.000    38508822.574   157687194.032          21.187          40.000  
J07  39036944.764   205140537.687        -118.237          35.000    39036946.584   159849775.431         -92.378          43.000  
C01  38676080.546   155732581.270         -52.020          48.000    38676083.631   201396845.257         -66.769          46.000  
C03  39387001.095   158595131.8823       -106.006          28.000    39387006.061   205098476.0783       -134.961          28.000  
C04  39151965.640   157648740.491         -76.537          42.000    39151970.966   203874596.978         -98.485          46.000  
C07  38167847.931   153686107.0143        191.940          19.000    38167861.829   198750072.2733        251.546          21.000  
C08  40746337.464   164068617.7343        901.025          33.000                                                                  
C10  39026625.599   157144049.1413        373.307          21.000                                                                  
C19                                                                  25880063.253   134764281.2122       2190.198          41.000  
C20                                                                  25824390.361   134474377.0573       -245.433          40.000  
C35                                                                  23745769.932   123650455.3043        491.406          29.000  
C40                                                                  37841000.985   197048063.527         354.143          51.000  
C45                                                                  26473555.444   137854742.206       -3154.753          44.000  
C59                                                                  38960412.218   202877091.908         -98.414          50.000  
> 2023 06 22 01 09 20.0060000  0 27                     
G01  21957812.081   115389099.357       -1476.957          49.000    21957813.975    89913648.892       -1151.045          46.000  
G02  23550511.215   123758771.1233      -2010.560          34.000                                                                  
G03  22999446.692   120862960.489        2276.974          49.000    22999449.140    94178903.997        1773.992          44.000  
G08                                                                  24805830.660   101575728.3731      -1911.817          29.000  
G14                                                                  22674515.213    92848349.0453        901.109          13.000  
R04                                                                  23629771.272    98417162.3783        528.478          45.000  
R05  24239587.110   129574484.0653       3385.742          36.000    24239593.826   100780181.8453       2610.547          32.000  
R09  23077246.515   123231219.345       -3886.490          46.000    23077251.152    95847051.044       -3023.000          45.000  
R19  23983395.920   128294995.8353      -2626.282          20.000                                                                  
E02  26727702.040   140455022.339       -2649.583          43.000    26727709.237   107621408.838       -2029.996          49.000  
E34  25229215.475   132580433.552        -560.365          40.000    25229220.556   101587623.506        -429.625          42.000  
E36                                                                  27594606.830   111112046.3733      -1756.431          24.000  
J02  38895329.009   204396355.343         328.228          47.000    38895329.605   159269877.625         256.738          45.000  
J03  40440257.449   212514988.381        -618.911          49.000    40440257.598   165596177.738        -482.557          46.000  
J04  38508812.367   202365189.617          25.609          41.000    38508817.379   157687173.845          19.747          41.000  
J07  39036967.401   205140656.247        -118.723          36.000    39036969.148   159849867.846         -92.793          43.000  
C01  38676093.401   155732632.943         -52.026          48.000    38676096.333   201396912.089         -67.762          46.000  
C03  39387022.556   158595218.6513       -118.457          27.000    39387027.786   205098589.2513        -78.760          27.000  
C04  39151984.624   157648816.927         -76.104          45.000    39151990.164   203874695.931         -99.479          45.000  
C07  38167798.525   153685907.9033        216.114          18.000    38167814.211   198749824.0803        254.671          17.000  
C10  39026533.579   157143678.4473        375.011          17.000                                                                  
C19                                                                  25879642.528   134762089.5431       2189.381          45.000  
C20                                                                  25824437.884   134474629.9283       -249.235          43.000  
C35                                                                  23745683.657   123650005.9273        481.777          21.000  
C40                                                                  37840933.047   197047709.316         354.440          40.000  
C45                                                                  26474161.276   137857897.551       -3156.123          43.000  
C59                                                                  38960431.387   202877190.959        -100.035          48.000  
> 2023 06 22 01 09 21.0060000  0 31                     
G01  21958093.304   115390576.162       -1476.517          48.000    21958094.931    89914799.652       -1150.401          48.000  
G02  23550880.851   123760722.1803      -2008.808          36.000                                                                  
G03  22999013.487   120860683.981        2275.951          47.000    22999015.848    94177130.065        1773.419          46.000  
G08  24806291.098   130357939.1573      -2453.076          32.000    24806301.512   101577657.2523      -1920.103          29.000  
G14                                                                  22674296.900    92847455.1283        884.340          12.000  
R04  23629626.356   126535576.1883        679.917          43.000    23629646.063    98416638.7713        526.549          44.000  
R05  24238958.656   129571124.4543       3361.768          35.000    24238966.282   100777573.6283       2612.420          30.000  
R09  23077974.399   123235106.731       -3888.546          45.000    23077979.119    95850074.559       -3023.693          45.000  
R11                                                                  24288124.918   100946514.2693       2214.258          24.000  
R19  23983883.348   128297602.8493      -2621.359          20.000                                                                  
R21  25057385.733   134087131.7203       2188.525          30.000                                                                  
E02  26728206.470   140457672.450       -2650.528          42.000    26728213.681   107623439.436       -2030.910          48.000  
E34  25229322.243   132580993.872        -560.508          32.000    25229327.138   101588052.783        -428.695          38.000  
E36  27595038.508   145012906.2383      -2291.830          25.000    27595045.617   111113813.5303      -1754.987          23.000  
J02  38895266.516   204396026.975         328.315          45.000    38895267.161   159269621.742         256.089          47.000  
J03  40440375.259   212515607.355        -618.638          50.000    40440375.407   165596660.025        -482.017          48.000  
J04  38508807.674   202365165.254          24.410          42.000    38508812.640   157687154.905          17.143          44.000  
J07  39036990.159   205140776.115        -120.638          39.000    39036991.918   159849961.225         -93.427          43.000  
C01  38676106.398   155732685.474         -52.698          47.000    38676109.463   201396979.986         -68.114          47.000  
C03  39387046.695   158595315.5653        -98.635          32.000    39387044.354   205098676.1493       -129.688          28.000  
C04  39152003.880   157648894.042         -77.494          44.000    39152009.317   203874795.598        -100.332          45.000  
C07  38167746.905   153685700.5683        212.025          19.000    38167762.156   198749553.4563        274.667          15.000  
C08  40745891.301   164066819.6743        901.366          32.000                                                                  
C10  39026440.098   157143302.0993        411.126          17.000                                                                  
C19                                                                  25879221.909   134759899.1283       2188.410          41.000  
C20                                                                  25824485.223   134474872.8773       -249.586          42.000  
C35                                                                  23745594.533   123649541.2573        457.183          20.000  
C38                                                                  39701393.531   206735574.4213        891.609          17.000  
C40                                                                  37840864.865   197047354.538         355.718          34.000  
C45                                                                  26474767.359   137861054.760       -3157.605          43.000  
C59                                                                  38960450.615   202877291.176        -100.512          49.000  
> 2023 06 22 01 09 22.0060000  0 31                     
G01  21958374.313   115392052.774       -1476.795          48.000    21958375.877    89915950.290       -1150.830          47.000  
G02  23551253.515   123762680.2233      -2014.447          46.000                                                                  
G03  22998580.217   120858407.795        2275.930          45.000    22998582.510    94175356.447        1773.523          44.000  
G08                                                                  24806775.446   101579597.6413      -1919.935          33.000  
G14                                                                  22674085.062    92846587.2633        866.014          13.000  
G17                                                                  24859692.593   101796284.1933       1652.465          13.000  
R04  23629512.555   126534955.2133        681.288          46.000    23629520.561    98416111.2853        525.954          44.000  
R05  24238333.031   129567780.2843       3371.151          27.000                                                                  
R09  23078702.486   123238994.403       -3888.244          46.000    23078707.136    95853098.428       -3023.656          43.000  
R11  24287602.690   129785584.2003       2845.997          24.000    24287607.563   100944363.9433       2211.120          30.000  
R19  23984371.967   128300216.9093      -2616.744          19.000                                                                  
E02  26728710.575   140460322.658       -2650.098          43.000    26728717.872   107625470.138       -2030.497          48.000  
E15  27194645.690   142908826.9081       1457.246          42.000    27194653.253   109501593.2361       1116.996          45.000  
E34  25229430.563   132581545.0671       -559.627          33.000    25229433.704   101588482.124        -428.781          36.000  
E36  27595475.148   145015201.1433      -2285.979          25.000    27595480.803   111115565.8843      -1750.867          22.000  
J02  38895203.933   204395698.450         328.871          44.000    38895204.584   159269365.806         255.985          46.000  
J03  40440492.972   212516225.850        -618.322          47.000    40440493.131   165597141.961        -481.728          47.000  
J04  38508802.972   202365140.847          24.772          39.000    38508807.741   157687135.874          19.052          43.000  
J07  39037012.975   205140895.818        -120.168          34.000    39037014.715   159850054.478         -93.179          44.000  
C01  38676119.423   155732737.921         -52.350          46.000    38676122.464   201397047.812         -67.229          41.000  
C03  39387069.493   158595407.9873        -91.406          27.000    39387068.316   205098800.9803       -117.822          27.000  
C04  39152023.085   157648971.008         -76.994          42.000    39152028.437   203874895.100         -99.556          40.000  
C07  38167694.056   153685487.6663        211.437          19.000    38167707.261   198749266.9193        274.667          13.000  
C10  39026340.634   157142901.4043        409.948          14.000                                                                  
C19                                                                  25878801.853   134757711.9123       2188.618          39.000  
C20                                                                  25824532.110   134475109.0853       -249.890          41.000  
C35                                                                  23745503.255   123649065.9553        493.103          19.000  
C38                                                                  39701219.698   206734668.9313        895.538          17.000  
C40                                                                  37840797.745   197046963.6953        354.660          28.000  
C45                                                                  26475373.560   137864212.011       -3157.458          40.000  
C59                                                                  38960469.665   202877391.300        -100.339          44.000  
> 2023 06 22 01 09 23.0060000  0 33                     
G01  21958655.294   115393529.333       -1476.724          48.000    21958656.775    89917100.845       -1150.511          46.000  
G02  23551631.466   123764696.1692      -2016.425          44.000                                                                  
G03  22998147.229   120856132.243        2275.365          45.000    22998149.327    94173583.295        1772.384          45.000  
G08                                                                  24807237.367   101581488.7631      -1918.324          29.000  
G14                                                                  22673869.021    92845702.1163        918.519          14.000  
G17  24859751.596   130638875.5573       2095.801          29.000                                                                  
R03                                                                  25602764.672   106597246.9363      -1819.977          24.000  
R04  23629394.031   126534331.6053        677.086          46.000    23629388.078    98415566.7943        530.403          44.000  
R09  23079430.511   123242882.479       -3888.230          43.000    23079435.223    95856122.425       -3023.889          44.000  
R10  21950936.125   117010841.9501      -1001.882          44.000                                                                  
R19  23984859.192   128302823.4193      -2612.321          20.000                                                                  
R21  25056633.120   134083104.2043       2205.411          29.000                                                                  
E02  26729215.262   140462973.277       -2649.046          38.000    26729222.478   107627501.120       -2030.100          47.000  
E15  27194367.671   142907370.116        1457.628          43.000    27194375.946   109500476.611        1116.778          47.000  
E30  25440015.787   133688181.075        -146.483          47.000                                                                  
E34  25229535.118   132582096.0861       -559.551          29.000    25229540.192   101588910.483        -428.395          32.000  
E36  27595907.536   145017472.0411      -2288.384          22.000                                                                  
J02  38895141.305   204395369.885         328.517          44.000    38895142.141   159269109.783         255.787          46.000  
J03  40440610.615   212516843.873        -617.939          48.000    40440610.725   165597623.572        -481.506          47.000  
J04  38508798.480   202365116.744          22.459          40.000    38508803.086   157687117.104          16.798          41.000  
J07  39037035.812   205141015.371        -119.681          35.000    39037037.508   159850147.703         -93.155          44.000  
C01  38676132.427   155732790.402         -52.936          47.000    38676135.596   201397115.675         -67.954          45.000  
C03  39387092.073   158595498.4683       -122.412          27.000                                                                  
C04  39152042.216   157649047.996         -75.564          44.000    39152047.602   203874994.776         -99.236          45.000  
C07  38167643.746   153685284.9413        216.567          18.000    38167655.716   198748998.2553        274.667          13.000  
C10  39026242.737   157142506.8633        414.995          15.000                                                                  
C19                                                                  25878382.239   134755527.3333       2186.324          41.000  
C20                                                                  25824580.699   134475365.3703       -249.679          43.000  
C35                                                                  23745410.317   123648582.4753        526.377          17.000  
C38                                                                  39701045.073   206733759.6203        902.222          17.000  
C40                                                                  37840729.517   197046609.9693        354.490          32.000  
C45                                                                  26475979.870   137867369.309       -3157.440          42.000  
C59                                                                  38960488.900   202877491.441        -100.754          46.000  
> 2023 06 22 01 09 24.0060000  0 33                     
G01  21958936.331   115395006.195       -1477.274          49.000    21958937.839    89918251.675       -1151.143          46.000  
G02  23552015.311   123766712.1172      -2017.173          48.000                                                                  
G03  22997714.392   120853857.745        2274.024          46.000    22997716.407    94171810.950        1772.084          44.000  
G08  24807694.374   130365312.8833      -2470.338          31.000    24807705.937   101583408.1753      -1917.625          31.000  
G14                                                                  22673647.415    92844795.2843        905.890          17.000  
G17                                                                  24858884.983   101792977.5843       1663.533          16.000  
R03                                                                  25603208.671   106599096.2643      -1834.955          26.000  
R04  23629265.239   126533641.6051        675.944          43.000    23629265.117    98415053.8913        526.019          47.000  
R05  24237093.814   129561156.3543       3347.006          28.000                                                                  
R09  23080158.592   123246771.132       -3889.702          46.000    23080163.387    95859146.972       -3024.442          45.000  
R10  21951122.828   117011844.155       -1002.520          44.000                                                                  
R11  24286546.853   129779942.5413       2820.599          25.000                                                                  
R19  23985342.967   128305410.6773      -2606.740          24.000                                                                  
R21                                                                  25055381.857   104281696.8303       1728.392          33.000  
E02  26729719.965   140465624.755       -2651.951          43.000    26729726.883   107629532.771       -2032.099          48.000  
E15  27194089.297   142905912.586        1457.469          43.000    27194098.298   109499359.837        1116.817          47.000  
E30  25440043.838   133688327.927        -147.378          47.000    25440047.652   102436528.3091       -112.216          51.000  
E34  25229641.379   132582655.372        -561.488          29.000    25229646.795   101589338.938        -428.901          27.000  
J02  38895078.782   204395041.627         327.536          44.000    38895079.560   159268853.989         255.601          45.000  
J03  40440728.188   212517461.803        -618.377          48.000    40440728.248   165598105.057        -481.341          47.000  
J04  38508794.017   202365093.146          23.005          39.000    38508798.497   157687098.677          18.338          40.000  
J07  39037058.730   205141135.178        -119.914          38.000    39037060.280   159850241.075         -93.106          42.000  
C01  38676145.587   155732843.246         -53.168          47.000    38676148.547   201397183.973         -67.978          45.000  
C04  39152061.514   157649125.685         -77.857          45.000    39152066.880   203875095.109        -100.520          44.000  
C07  38167591.136   153685073.1543        211.537          17.000    38167600.046   198748708.5493        273.658          11.000  
C08  40745223.130   164064128.7343        897.927          25.000                                                                  
C10  39026144.907   157142113.6333        389.327          16.000                                                                  
C19                                                                  25877962.117   134753339.4783       2184.814          40.000  
C20                                                                  25824629.809   134475623.6353       -251.931          42.000  
C35                                                                  23745317.260   123648097.5323        532.176          18.000  
C40                                                                  37840659.578   197046249.2483        355.775          27.000  
C45                                                                  26476586.106   137870527.054       -3157.899          42.000  
C59                                                                  38960508.064   202877591.927        -100.350          47.000  
> 2023 06 22 01 09 25.0060000  0 34                     
G01  21959217.491   115396483.754       -1478.013          50.000    21959219.033    89919403.005       -1152.038          46.000  
G02  23552399.325   123768728.6512      -2016.271          50.000                                                                  
G03  22997281.560   120851583.528        2273.090          47.000    22997283.484    94170038.862        1770.713          44.000  
G08                                                                  24808173.079   101585320.5243      -1927.849          31.000  
G14                                                                  22673417.561    92843854.0031        895.874          36.000  
G17  24858956.128   130634709.6393       2095.401          34.000    24858477.737   101791310.3423       1631.729          16.000  
R03                                                                  25603656.460   106600931.4742      -1835.761          27.000  
R04  23629136.771   126532965.738         674.255          47.000    23629134.760    98414528.2302        523.685          45.000  
R05  24236473.388   129557840.0423       3356.745          32.000                                                                  
R09  23080886.567   123250659.443       -3888.760          45.000    23080891.506    95862171.214       -3025.048          44.000  
R10  21951310.464   117012846.729       -1003.725          46.000                                                                  
R11  24286017.448   129777113.4483       2797.854          30.000                                                                  
R19  23985805.066   128307941.8571      -2616.488          37.000    23985812.929    99795112.8673      -2034.873          37.000  
R21  25054847.975   134073545.5323       2221.321          46.000    25054935.674   104279793.5651       1727.501          38.000  
E02  26730224.279   140468275.938       -2651.503          43.000    26730231.520   107631564.228       -2032.189          49.000  
E15  27193813.487   142904454.619        1457.567          44.000    27193821.557   109498242.686        1116.649          48.000  
E27  28391432.012   149197982.0113       2272.406          29.000                                                                  
E30  25440070.694   133688474.906        -147.988          47.000    25440076.419   102436642.557        -115.086          52.000  
E34  25229752.187   132583242.7731       -561.866          28.000    25229753.246   101589767.515        -430.069          27.000  
J02  38895016.205   204394713.032         327.916          45.000    38895016.991   159268597.934         255.622          45.000  
J03  40440845.711   212518079.555        -618.044          49.000    40440845.804   165598586.456        -481.690          47.000  
J04  38508789.414   202365069.115          23.872          41.000    38508793.914   157687080.003          18.318          42.000  
J07  39037081.471   205141254.361        -120.152          38.000    39037082.858   159850333.866         -92.661          41.000  
C01  38676158.648   155732895.736         -52.509          47.000    38676161.573   201397251.894         -68.673          43.000  
C04  39152080.830   157649203.125         -77.878          45.000    39152086.161   203875195.216         -99.976          45.000  
C07  38167537.663   153684857.8213        216.974          20.000    38167546.062   198748427.5353        272.931          13.000  
C10  39026048.307   157141724.1363        392.266          18.000                                                                  
C19                                                                  25877541.959   134751151.4221       2187.793          43.000  
C20                                                                  25824678.046   134475875.2013       -251.971          46.000  
C35                                                                  23745227.063   123647628.4163        529.171          28.000  
C38                                                                  39700213.030   206729426.5483        960.124          29.000  
C40                                                                  37840591.235   197045887.8493        355.545          26.000  
C45                                                                  26477192.339   137873684.051       -3157.229          42.000  
C59                                                                  38960527.390   202877691.981        -101.446          43.000  
> 2023 06 22 01 09 26.0060000  0 37                     
G01  21959498.840   115397962.423       -1480.073          48.000    21959500.323    89920555.232       -1153.518          46.000  
G02  23552783.422   123770746.0081      -2020.158          48.000                                                                  
G03  22996848.775   120849309.523        2274.311          46.000    22996850.710    94168266.950        1771.004          44.000  
G08  24808616.572   130370180.1501      -2466.877          33.000    24808623.708   101587180.7101      -1920.811          30.000  
G14  22673184.650   119148389.5143       1148.346          47.000    22673184.338    92842958.601         895.160          47.000  
G17                                                                  24858075.738   101789663.4733       1615.101          16.000  
G21  24027231.197   126263979.8383      -2626.708          31.000                                                                  
R03                                                                  25604099.037   106602803.0673      -1840.503          26.000  
R04  23629009.936   126532291.994         672.138          45.000    23629008.275    98414004.0822        525.029          42.000  
R05  24235857.325   129554546.8673       3357.720          31.000    24235844.771   100764594.7473       2607.740          26.000  
R09  23081614.297   123254547.191       -3885.803          45.000    23081619.579    95865195.019       -3022.884          45.000  
R10  21951499.208   117013849.844       -1003.287          45.000                                                                  
R11  24285475.981   129774220.2813       2807.533          31.000    24285502.865   100935616.0893       2211.272          31.000  
R19  23986251.680   128310558.945       -2619.235          39.000    23986251.644    99797148.3782      -2037.265          43.000  
R21  25054433.507   134071324.3612       2221.420          43.000    25054480.979   104278065.956        1728.142          38.000  
E02  26730729.126   140470926.937       -2650.444          42.000    26730735.820   107633595.458       -2030.578          49.000  
E15  27193536.921   142902996.280        1458.842          44.000    27193543.725   109497125.195        1118.893          48.000  
E27  28390995.666   149195689.3173       2273.562          28.000                                                                  
E30  25440098.301   133688622.212        -147.637          46.000    25440103.769   102436755.324        -112.710          50.000  
E34  25229858.312   132583799.8351       -560.891          27.000    25229860.139   101590190.7891       -427.952          27.000  
E36  27597174.351   145024130.706       -2291.604          43.000    27597180.295   111122408.0891      -1755.587          45.000  
J02  38894953.413   204394384.120         329.208          43.000    38894954.442   159268341.635         256.953          45.000  
J03  40440963.230   212518697.456        -618.609          47.000    40440963.321   165599067.914        -481.504          47.000  
J04  38508784.736   202365044.537          25.006          38.000    38508789.124   157687060.815          20.099          40.000  
J07  39037104.172   205141372.781        -118.129          37.000    39037105.334   159850426.186         -91.601          44.000  
C01  38676171.600   155732947.835         -51.532          47.000    38676174.599   201397319.264         -68.114          44.000  
C03  39386991.409   158595093.2873       -102.938          28.000                                                                  
C04  39152100.041   157649280.375         -76.864          45.000    39152105.448   203875295.182        -100.442          45.000  
C07  38167483.738   153684640.7483        215.246          29.000    38167488.484   198748128.3153        277.625          19.000  
C10  39025952.990   157141340.1943        407.811          21.000                                                                  
C19                                                                  25877121.943   134748964.687        2186.622          40.000  
C20                                                                  25824726.634   134476128.5902       -255.190          41.000  
C35                                                                  23745147.151   123647163.4173        526.388          36.000  
C38                                                                  39700022.462   206728444.7311        961.375          30.000  
C40                                                                  37840523.853   197045537.3733        355.741          26.000  
C45                                                                  26477798.285   137876840.197       -3154.667          40.000  
C59                                                                  38960546.532   202877791.343         -99.118          47.000  
> 2023 06 22 01 09 27.0060000  0 37                     
G01  21959780.532   115399442.771       -1480.429          48.000    21959782.004    89921708.748       -1154.007          47.000  
G02  23553167.712   123772765.973       -2021.592          46.000                                                                  
G03  22996415.817   120847034.962        2274.456          45.000    22996417.814    94166494.488        1772.815          43.000  
G08  24809062.046   130372646.921       -2467.448          44.000    24809068.598   101589022.9371      -1922.834          39.000  
G14  22672965.010   119147239.8043       1148.633          48.000    22672964.571    92842063.486         895.776          45.000  
G17                                                                  24857675.541   101788024.7303       1634.907          18.000  
G21  24027727.240   126266606.2682      -2627.742          44.000                                                                  
R04  23628884.301   126531620.936         669.918          44.000    23628882.587    98413482.3022        520.855          45.000  
R05  24235233.920   129551214.3503       3364.918          31.000    24235220.143   100761998.3803       2622.265          26.000  
R09  23082341.770   123258432.789       -3883.856          43.000    23082347.311    95868217.089       -3021.525          44.000  
R10  21951688.118   117014852.709       -1003.062          45.000                                                                  
R11  24284947.322   129771395.0773       2815.957          26.000                                                                  
R19  23986723.077   128313179.363       -2620.900          39.000    23986725.881    99798894.4921      -2037.466          43.000  
R20  21953118.375   117393189.1643        -88.328          28.000                                                                  
R21  25054016.681   134069101.8122       2223.849          43.000    25054044.998   104276337.315        1729.556          38.000  
E02  26731233.187   140473576.341       -2648.534          43.000    26731239.971   107635625.565       -2029.830          48.000  
E15  27193258.681   142901536.314        1460.185          43.000    27193265.911   109496006.579        1119.092          48.000  
E27  28390565.255   149193427.6213       2273.583          26.000                                                                  
E30  25440125.857   133688769.318        -146.897          47.000    25440131.994   102436868.067        -112.841          50.000  
E34  25229961.370   132584342.2121       -559.902          35.000    25229965.793   101590616.3071       -430.534          33.000  
E36  27597610.756   145026423.362       -2293.081          44.000    27597616.793   111124165.911       -1757.236          47.000  
J02  38894890.523   204394053.999         330.827          44.000    38894891.585   159268084.416         257.545          46.000  
J03  40441080.728   212519315.265        -617.615          47.000    40441080.963   165599549.336        -481.417          47.000  
J04  38508779.799   202365017.847          27.387          40.000    38508784.013   157687040.034          21.033          41.000  
J07  39037126.348   205141489.080        -115.524          37.000    39037127.319   159850516.850         -90.019          43.000  
C01  38676184.203   155732998.685         -50.055          48.000    38676187.076   201397385.034         -64.648          45.000  
C03  39387011.146   158595172.2753        -79.102          33.000                                                                  
C04  39152119.051   157649359.3891        -75.867          45.000    39152124.429   203875394.108         -99.078          44.000  
C07  38167423.296   153684427.1272        212.080          43.000    38167428.866   198747817.3411        274.447          40.000  
C10  39025855.346   157140948.4331        388.296          26.000                                                                  
C19                                                                  25876701.570   134746778.368        2187.327          41.000  
C20                                                                  25824775.754   134476383.9561       -256.407          43.000  
C35                                                                  23745045.558   123646636.6001        528.075          33.000  
C38                                                                  39699838.861   206727481.501         963.985          33.000  
C40                                                                  37840459.672   197045203.9453        357.032          27.000  
C45                                                                  26478403.710   137879993.572       -3152.607          41.000  
C59                                                                  38960565.192   202877889.036         -96.871          45.000  
> 2023 06 22 01 09 28.0060000  0 36                     
G01  21960062.506   115400924.190       -1483.185          45.000    21960063.903    89922863.066       -1155.149          45.000  
G02  23553552.357   123774786.948       -2022.728          44.000                                                                  
G03  22995982.970   120844760.364        2273.462          43.000    22995985.056    94164722.114        1771.466          43.000  
G08  24809530.367   130375114.594       -2468.873          40.000    24809536.430   101590945.788       -1923.336          39.000  
G14  22672746.798   119146088.7063       1146.368          45.000    22672745.816    92841168.868         894.061          46.000  
G17                                                                  24857271.153   101786369.2343       1632.027          19.000  
G21  24028229.924   126269233.9832      -2629.006          44.000                                                                  
R04  23628758.901   126530951.879         667.422          45.000    23628757.643    98412961.9102        519.791          45.000  
R05  24234609.678   129547876.8543       3362.397          24.000                                                                  
R09  23083069.202   123262317.547       -3885.178          41.000    23083074.687    95871238.509       -3021.200          46.000  
R10  21951875.761   117015855.990       -1004.487          43.000                                                                  
R11  24284421.714   129768586.1263       2789.397          27.000                                                                  
R19  23987207.225   128315800.501       -2622.004          35.000    23987209.001    99800933.247       -2038.755          41.000  
R21  25053601.150   134066880.3563       2225.433          45.000    25053619.113   104274608.291        1729.721          41.000  
E02  26731737.151   140476225.256       -2649.577          39.000    26731744.159   107637655.199       -2029.844          48.000  
E15  27192980.942   142900075.808        1460.539          42.000    27192987.956   109494887.432        1119.016          48.000  
E27  28390136.276   149191172.6291       2275.093          25.000                                                                  
E30  25440154.425   133688916.643        -148.168          44.000    25440159.970   102436980.940        -113.437          51.000  
E34  25230069.426   132584903.457        -561.392          34.000    25230073.026   101591046.448        -430.065          41.000  
E36  27598046.900   145028717.264       -2295.400          42.000    27598052.593   111125923.519       -1758.174          47.000  
J02  38894827.474   204393723.358         329.965          41.000    38894828.593   159267826.755         257.708          45.000  
J03  40441198.268   212519933.047        -618.919          45.000    40441198.424   165600030.707        -481.610          47.000  
J04  38508774.582   202364990.254          26.880          36.000    38508778.623   157687018.500          21.511          38.000  
J07  39037148.361   205141604.417        -116.281          37.000    39037149.227   159850606.675         -89.768          42.000  
C01  38676196.697   155733048.989         -50.549          46.000    38676199.484   201397450.052         -65.590          41.000  
C03  39387032.536   158595259.2533        -90.381          33.000                                                                  
C04  39152138.049   157649435.987         -76.314          45.000    39152143.284   203875492.544         -98.656          42.000  
C07  38167368.583   153684215.2462        211.595          48.000    38167376.364   198747543.339         272.629          45.000  
C10  39025754.503   157140561.266         386.353          47.000    39025759.045   203217421.0871        499.146          42.000  
C19                                                                  25876281.346   134744591.718        2185.664          38.000  
C20                                                                  25824825.031   134476641.519        -258.787          41.000  
C35                                                                  23744945.513   123646161.6973        522.454          29.000  
C38                                                                  39699651.916   206726517.904         963.739          31.000  
C40                                                                  37840388.669   197044833.2523        351.238          27.000  
C45                                                                  26479009.200   137883145.852       -3152.494          41.000  
C59                                                                  38960583.748   202877985.807         -97.340          42.000  
> 2023 06 22 01 09 29.0060000  0 35                     
G01  21960344.729   115402407.132       -1484.165          48.000    21960346.068    89924018.593       -1156.225          45.000  
G02  23553937.140   123776809.577       -2023.267          44.000                                                                  
G03  22995550.128   120842485.897        2273.867          46.000    22995552.137    94162949.739        1772.440          44.000  
G08  24810002.359   130377583.253       -2468.905          41.000    24810007.872   101592869.426       -1924.116          39.000  
G14  22672528.990   119144943.5013       1146.460          47.000    22672527.460    92840274.941         893.524          46.000  
G17  24857365.999   130626339.8313       2093.359          37.000    24856864.571   101784704.7923       1674.603          19.000  
G21  24028728.636   126271863.6042      -2630.981          45.000                                                                  
R04  23628634.087   126530285.135         665.785          45.000    23628632.684    98412443.3312        517.697          46.000  
R05                                                                  24233973.105   100756812.8883       2599.764          27.000  
R09  23083796.465   123266201.358       -3883.561          46.000    23083802.061    95874259.316       -3020.651          44.000  
R10  21952063.616   117016860.371       -1003.834          45.000                                                                  
R11  24283912.962   129765867.6003       2786.644          28.000                                                                  
R19  23987694.433   128318423.718       -2623.638          37.000    23987696.320    99802974.003       -2040.493          42.000  
R21  25053186.942   134064663.3953       2218.506          35.000    25053201.181   104272879.861        1726.191          32.000  
E02  26732241.016   140478873.588       -2648.249          42.000    26732248.104   107639684.425       -2028.876          50.000  
E15  27192702.994   142898614.845        1460.724          40.000    27192709.950   109493768.028        1119.241          43.000  
E30  25440181.787   133689064.423        -148.245          46.000    25440187.890   102437094.160        -113.443          50.000  
E34  25230175.064   132585465.719        -563.362          50.000    25230180.900   101591477.207        -431.797          52.000  
E36  27598484.592   145031013.032       -2297.017          44.000    27598489.558   111127682.602       -1759.854          46.000  
J02  38894764.395   204393392.271         330.865          42.000    38894765.625   159267568.797         257.761          44.000  
J03  40441315.959   212520551.115        -618.723          47.000    40441316.087   165600512.327        -481.960          47.000  
J04  38508769.019   202364961.876          28.677          29.000    38508773.188   157686996.442          22.402          32.000  
J07  39037170.278   205141718.767        -114.043          37.000    39037170.858   159850695.820         -89.073          41.000  
C01  38676209.033   155733098.685         -50.470          42.000    38676211.915   201397514.359         -64.373          43.000  
C03  39387053.289   158595342.1223       -102.051          29.000    39387096.528   205098947.5303        -85.156          27.000  
C04  39152156.934   157649511.851         -76.010          45.000    39152162.184   203875590.653         -98.647          45.000  
C07  38167316.654   153684003.8162        210.850          49.000    38167323.958   198747269.871         273.110          47.000  
C10  39025658.234   157140175.104         386.104          47.000    39025661.708   203216921.638         499.125          45.000  
C19                                                                  25875861.241   134742405.294        2186.157          40.000  
C20                                                                  25824874.809   134476901.228        -261.934          41.000  
C35                                                                  23744842.155   123645624.1003        522.510          38.000  
C38                                                                  39699465.965   206725552.849         964.827          41.000  
C40                                                                  37840318.740   197044468.3541        353.277          45.000  
C45                                                                  26479614.335   137886296.786       -3150.141          40.000  
C59                                                                  38960602.025   202878079.0811        -97.149          40.000  
> 2023 06 22 01 09 30.0060000  0 36                     
G01  21960627.428   115403891.517       -1485.116          47.000    21960628.567    89925175.292       -1157.256          46.000  
G02  23554322.351   123778833.743       -2025.406          44.000                                                                  
G03  22995117.306   120840211.448        2275.077          45.000    22995119.321    94161177.495        1772.705          44.000  
G08  24810471.032   130380052.939       -2469.989          41.000    24810475.998   101594793.873       -1924.946          40.000  
G14  22672310.502   119143794.1823       1145.667          46.000    22672311.174    92839381.743         892.676          46.000  
G17                                                                  24856454.683   101783026.3113       1638.815          22.000  
G21  24029230.767   126274494.6932      -2631.612          44.000                                                                  
R04  23628509.714   126529620.595         664.045          45.000    23628510.327    98411926.4912        516.325          46.000  
R05  24233362.818   129541212.2123       3346.698          30.000    24233350.131   100754222.6743       2603.455          28.000  
R09  23084523.541   123270084.325       -3882.217          45.000    23084529.165    95877279.383       -3019.137          41.000  
R10  21952251.981   117017864.923       -1005.416          43.000                                                                  
R11  24283379.694   129763018.4333       2831.885          28.000    24283404.518   100926894.7893       2166.792          24.000  
R19  23988183.462   128321048.756       -2625.941          37.000    23988186.651    99805015.752       -2042.268          41.000  
R21  25052782.520   134062499.0493       2178.114          26.000    25052792.941   104270876.3853       1701.599          26.000  
E02  26732744.717   140481521.297       -2647.007          37.000    26732752.127   107641713.214       -2028.437          45.000  
E15                                                                  27192432.100   109492649.437        1117.937          29.000  
E27                                                                  28389225.552   114311646.8851       1704.604          41.000  
E30  25440210.301   133689212.639        -148.060          46.000    25440215.946   102437207.755        -113.930          50.000  
E34  25230282.864   132586029.040        -563.281          47.000    25230286.765   101591908.909        -432.426          52.000  
E36  27598921.748   145033310.510       -2298.394          43.000    27598927.092   111129443.057       -1761.203          48.000  
J02  38894701.226   204393060.810         331.729          41.000    38894702.623   159267310.522         258.587          46.000  
J03  40441433.593   212521169.438        -618.307          46.000    40441433.728   165600994.156        -481.781          47.000  
J04  38508763.986   202364919.6053         35.623          19.000    38508767.744   157686966.1041         21.063          27.000  
J07  39037191.958   205141832.099        -112.888          35.000    39037192.421   159850784.175         -87.958          44.000  
C01  38676221.288   155733147.938         -48.041          43.000    38676224.108   201397248.0461        -62.349          39.000  
C03  39387073.355   158595422.9053       -103.809          30.000    39387095.896   205098943.9433       -147.803          28.000  
C04  39152175.743   157649587.332         -75.003          44.000    39152180.949   203875688.274         -96.714          43.000  
C07  38167264.030   153683792.7632        211.017          49.000    38167270.585   198746996.957         272.552          45.000  
C10  39025562.769   157139789.334         385.238          48.000    39025564.944   203216422.768         498.282          44.000  
C19                                                                  25875441.099   134740219.173        2186.385          38.000  
C20                                                                  25824924.855   134477162.740        -261.701          39.000  
C35                                                                  23744722.622   123645019.8641        492.749          47.000  
C38                                                                  39699281.080   206724586.818         966.747          42.000  
C40                                                                  37840251.297   197044115.091         352.426          49.000  
C45                                                                  26480219.190   137889446.424       -3149.402          42.000  
C59                                                                  38960620.774   202878176.2933       -100.439          31.000  
> 2023 06 22 01 09 31.0060000  0 35                     
G01  21960910.052   115405377.138       -1486.172          46.000    21960911.281    89926332.911       -1157.989          46.000  
G02  23554707.740   123780859.120       -2026.343          45.000                                                                  
G03  22994684.440   120837936.497        2276.418          45.000    22994686.421    94159404.713        1774.099          46.000  
G08  24810940.796   130382522.579       -2468.601          39.000    24810945.954   101596718.301       -1924.335          39.000  
G14  22672092.312   119142649.9263       1144.843          46.000    22672092.475    92838489.332         891.644          46.000  
G17  24855967.529   130618988.2503       2092.585          42.000    24855976.088   101781299.6611       1631.048          41.000  
G21  24029729.762   126277127.0042      -2632.273          42.000                                                                  
R04  23628385.658   126528957.992         662.983          45.000    23628386.651    98411410.2611        515.189          45.000  
R05                                                                  24232723.573   100751622.8663       2618.928          28.000  
R09  23085250.337   123273966.029       -3880.190          44.000    23085256.218    95880298.506       -3018.506          47.000  
R10  21952440.513   117018870.385       -1005.950          34.000                                                                  
R19  23988673.849   128323675.095       -2626.876          37.000    23988676.691    99807058.383       -2042.275          41.000  
R20                                                                  21953213.252    91306208.2363        -76.206          22.000  
E02  26733248.314   140484168.081       -2645.927          30.000    26733255.867   107643741.309       -2028.102          38.000  
E15                                                                  27192155.021   109491539.8593       1110.345          20.000  
E27  28388798.317   149184138.577        2222.023          36.000    28388803.746   114309942.663        1702.550          42.000  
E30  25440238.660   133689361.282        -148.375          46.000    25440244.384   102437321.631        -113.897          52.000  
E34  25230390.175   132586593.267        -564.594          47.000    25230395.041   101592341.216        -432.872          51.000  
E36  27599359.277   145035609.230       -2298.951          42.000    27599364.581   111131204.419       -1761.534          46.000  
J02  38894637.921   204392728.477         333.054          42.000    38894639.303   159267051.531         259.837          44.000  
J03  40441551.239   212521787.820        -618.123          45.000    40441551.451   165601476.014        -481.874          47.000  
J04                                                                  38508762.609   157686944.7843         21.923          27.000  
J07  39037213.398   205141944.291        -111.771          37.000    39037213.872   159850871.552         -86.880          43.000  
C01  38676233.924   155733167.2423        -46.143          38.000    38676340.243   201397852.6533       -125.500          34.000  
C03  39387099.440   158595527.8843       -103.369          32.000                                                                  
C04  39152194.375   157649662.008         -74.466          44.000    39152199.560   203875784.773         -96.349          43.000  
C07  38167211.808   153683582.1782        210.542          49.000    38167219.384   198746724.639         271.868          44.000  
C10  39025466.337   157139404.177         384.627          48.000    39025469.965   203215924.647         497.899          43.000  
C19                                                                  25875020.931   134738032.363        2187.296          37.000  
C20                                                                  25824975.356   134477425.594        -262.942          40.000  
C35                                                                  23744627.081   123644527.960         491.282          49.000  
C38                                                                  39699095.331   206723619.543         967.917          38.000  
C40                                                                  37840183.416   197043762.523         352.455          47.000  
C45                                                                  26480823.714   137892594.419       -3146.908          37.000  
C59                                                                  38960742.115   202878808.3373       -150.234          30.000  
> 2023 06 22 01 09 32.0060000  0 35                     
G01  21961193.027   115406864.198       -1487.721          49.000    21961194.264    89927491.630       -1159.152          46.000  
G02  23555093.613   123782885.655       -2027.077          48.000                                                                  
G03  22994251.395   120835660.467        2277.224          46.000    22994253.476    94157631.270        1774.295          46.000  
G08  24811410.080   130384992.022       -2468.469          43.000    24811415.694   101598642.145       -1924.125          39.000  
G14  22671874.580   119141506.4382       1142.487          48.000    22671874.542    92837598.266         890.472          46.000  
G17  24855570.343   130616896.6332       2089.732          44.000    24855569.648   101779669.813        1629.001          41.000  
G21  24030231.803   126279759.8231      -2633.603          46.000                                                                  
R04  23628261.761   126528295.823         661.438          46.000    23628262.861    98410895.142         515.215          46.000  
R05  24232045.575   129534170.6243       3394.736          43.000    24232089.659   100748984.9763       2639.205          36.000  
R09  23085977.039   123277846.675       -3880.417          44.000    23085982.938    95883316.781       -3018.276          40.000  
R11  24282248.557   129757097.5973       2779.115          50.000    24282266.262   100922479.9303       2162.466          44.000  
R19  23989164.801   128326302.455       -2628.232          41.000    23989168.057    99809101.918       -2044.396          42.000  
R21  25051978.367   134058195.8743       2177.734          31.000                                                                  
E02  26733751.968   140486814.9751      -2646.588          23.000    26733759.264   107645768.451       -2025.135          32.000  
E15                                                                  27191879.868   109490431.5153       1110.345          17.000  
E27  28388367.174   149181876.4133       2214.212          28.000    28388381.381   114308247.3651       1700.717          30.000  
E30  25440267.543   133689511.346        -151.887          35.000    25440272.980   102437436.626        -115.886          39.000  
E34  25230497.183   132587158.657        -565.680          49.000    25230501.783   101592774.407        -433.472          51.000  
E36  27599795.270   145037909.004       -2299.813          43.000    27599802.162   111132966.577       -1762.627          47.000  
J02  38894574.510   204392395.290         333.487          46.000    38894575.910   159266791.924         259.820          45.000  
J03  40441668.919   212522406.489        -618.687          48.000    40441669.158   165601958.070        -482.088          47.000  
J04                                                                  38508758.234   157686927.4803         -3.275          25.000  
J07  39037234.636   205142055.189        -110.557          38.000    39037234.957   159850957.920         -85.720          42.000  
C01  38676248.415   155733226.1423        -47.021          28.000    38676362.018   201397966.2093       -128.857          36.000  
C03  39387124.382   158595628.3783        -94.336          35.000                                                                  
C04  39152212.555   157649735.253         -72.217          44.000    39152217.722   203875879.531         -93.800          44.000  
C07  38167159.905   153683372.5052        209.185          49.000    38167167.633   198746453.478         271.022          49.000  
C10  39025370.734   157139020.205         383.424          47.000    39025373.827   203215428.150         495.444          45.000  
C19                                                                  25874600.748   134735844.110        2188.770          42.000  
C20                                                                  25825026.037   134477689.111        -264.175          45.000  
C35                                                                  23744532.551   123644037.519         489.490          51.000  
C38                                                                  39698909.378   206722651.167         969.472          42.000  
C40                                                                  37840114.726   197043411.102         350.856          50.000  
C45                                                                  26481427.601   137895740.600       -3145.207          39.000  
C59                                                                  38960771.866   202878962.8883       -159.469          39.000  
> 2023 06 22 01 09 33.0060000  0 36                     
G01  21961476.227   115408352.684       -1488.661          48.000    21961477.533    89928651.507       -1160.177          46.000  
G02  23555479.607   123784913.334       -2027.831          48.000                                                                  
G03  22993818.153   120833383.820        2277.443          47.000    22993820.339    94155857.259        1773.904          44.000  
G08  24811879.852   130387460.278       -2465.519          39.000    24811885.274   101600517.4021      -1921.365          37.000  
G14  22671657.199   119140364.7382       1140.509          44.000    22671657.166    92836708.664         888.477          43.000  
G17  24855172.450   130614807.0052       2088.822          43.000    24855172.649   101778041.606        1626.665          40.000  
G21  24030733.174   126282394.128       -2633.321          45.000                                                                  
R03                                                                  25607210.535   106615757.1091      -1856.304          24.000  
R04  23628137.923   126527634.352         662.380          44.000    23628139.293    98410380.653         515.657          44.000  
R05  24231342.569   129530449.0403       3392.746          43.000    24231438.558   100746338.2763       2640.392          40.000  
R09  23086703.680   123281726.859       -3880.102          34.000    23086709.541    95886334.687       -3018.143          36.000  
R11  24281691.809   129754090.7531       2777.035          48.000    24281702.696   100920319.0622       2159.639          38.000  
R19  23989656.079   128328930.782       -2629.546          36.000    23989659.476    99811146.238       -2045.584          39.000  
R20  21953249.954   117393892.6493       -137.814          38.000    21953268.036    91306408.7261       -107.459          38.000  
E02  26734257.098   140489468.8253      -2647.389          23.000    26734262.837   107647797.0291      -2026.578          26.000  
E15                                                                  27191604.625   109489323.6483       1108.408          11.000  
E27                                                                  28387960.719   114306554.0943       1697.329          28.000  
E30  25440296.015   133689657.4393       -154.627          22.000    25440302.186   102437553.8983       -118.190          25.000  
E34  25230604.750   132587725.351        -567.221          48.000    25230609.996   101593208.616        -434.526          51.000  
E36  27600232.727   145040209.831       -2302.474          41.000    27600240.077   111134729.552       -1764.343          45.000  
J02  38894510.957   204392061.472         334.832          45.000    38894512.391   159266531.781         260.221          46.000  
J03  40441786.732   212523025.544        -618.939          48.000    40441786.958   165602440.445        -482.178          47.000  
J04                                                                  38508781.096   157687020.2383        -34.211          24.000  
J07  39037255.578   205142165.046        -108.464          37.000    39037255.761   159851043.531         -84.966          40.000  
C01  38676260.850   155733275.9983        -65.625          27.000    38676389.990   201398111.8523       -166.260          27.000  
C03  39387147.550   158595721.8143       -108.740          33.000    39387148.069   205099216.0653       -114.984          28.000  
C04  39152230.534   157649807.378         -71.694          45.000    39152235.487   203875972.816         -92.795          43.000  
C07  38167107.833   153683163.2651        208.693          49.000    38167115.761   198746184.086         269.574          48.000  
C10  39025275.489   157138637.974         383.162          47.000    39025277.532   203214933.231         494.402          44.000  
C19                                                                  25874180.341   134733654.113        2190.458          44.000  
C20                                                                  25825076.944   134477953.222        -262.897          43.000  
C35                                                                  23744438.614   123643549.183         488.632          51.000  
C38                                                                  39698723.323   206721682.054         970.570          44.000  
C40                                                                  37840048.616   197043061.322         350.204          50.000  
C45                                                                  26482031.487   137898885.496       -3144.071          41.000  
C59                                                                  38960805.764   202879139.8393       -158.496          29.000  
> 2023 06 22 01 09 34.0060000  0 33                     
G01  21961759.631   115409841.953       -1489.936          47.000    21961760.974    89929811.977       -1160.797          46.000  
G02  23555865.657   123786941.647       -2028.782          46.000                                                                  
G03  22993384.751   120831106.255        2277.896          45.000    22993386.817    94154082.530        1774.868          43.000  
G08  24812349.569   130389927.997       -2465.805          39.000    24812355.602   101602440.349       -1920.641          37.000  
G14  22671440.059   119139224.0062       1140.344          33.000    22671440.029    92835819.817         887.604          34.000  
G17                                                                  24854780.695   101776171.6403       1620.731          26.000  
G21  24031234.616   126285029.080       -2635.530          44.000                                                                  
R04  23628014.263   126526942.9293        658.905          44.000    23628015.954    98409867.016         513.407          47.000  
R05  24230689.900   129527055.2322       3397.576          38.000    24230777.670   100743698.8152       2640.395          34.000  
R09  23087430.167   123285606.200       -3878.870          30.000    23087437.253    95888820.6223      -3014.740          31.000  
R11  24281171.619   129751314.223        2773.639          40.000    24281175.480   100918159.5412       2160.453          33.000  
R19  23990147.454   128331559.811       -2629.370          36.000    23990150.962    99813190.982       -2044.444          42.000  
R20  21953293.835   117394031.5052       -139.395          39.000    21953303.391    91306516.716        -108.239          41.000  
E02  26734760.904   140492116.8633      -2650.165          24.000    26734765.553   107649820.6091      -2025.562          26.000  
E30                                                                  25440332.418   102437676.3263       -115.650          22.000  
E34  25230712.691   132588292.420        -567.363          48.000    25230717.790   101593643.152        -434.642          52.000  
E36  27600670.531   145042511.138       -2301.813          43.000    27600677.924   111136492.927       -1764.556          46.000  
J02  38894447.323   204391726.604         335.015          43.000    38894448.799   159266270.852         260.907          46.000  
J03  40441904.500   212523644.289        -618.985          46.000    40441904.724   165602922.597        -482.629          46.000  
J04                                                                  38508806.786   157687126.1883        -46.250          23.000  
J07  39037276.164   205142273.531        -108.636          35.000    39037276.387   159851128.132         -84.986          41.000  
C01  38676271.884   155733319.6903        -43.457          27.000                                                                  
C03  39387174.364   158595829.2871       -112.451          34.000    39387176.932   205099366.1593       -137.354          29.000  
C04  39152248.188   157649878.398         -70.287          47.000    39152253.069   203876064.658         -91.183          41.000  
C07  38167056.099   153682954.776         208.472          49.000    38167063.969   198745914.371         269.729          45.000  
C10  39025181.612   157138256.662         384.384          33.000    39025183.697   203214372.3323        489.242          28.000  
C19                                                                  25873759.666   134731463.655        2191.727          40.000  
C20                                                                  25825127.874   134478218.225        -265.951          41.000  
C35                                                                  23744344.300   123643060.919         487.731          49.000  
C38                                                                  39698537.060   206720711.673         970.834          42.000  
C40                                                                  37839981.005   197042711.309         349.780          48.000  
C45                                                                  26482635.171   137902028.713       -3142.667          41.000  
C59                                                                  38960836.582   202879300.3033       -166.016          33.000  
> 2023 06 22 01 09 35.0060000  0 32                     
G01  21962043.224   115411332.050       -1490.445          49.000    21962044.620    89930973.075       -1161.511          46.000  
G02  23556251.886   123788970.713       -2029.196          48.000                                                                  
G03  22992951.286   120828828.451        2277.390          47.000    22992953.381    94152307.616        1774.777          44.000  
G08  24812819.244   130392396.008       -2468.395          44.000    24812825.430   101604371.3911      -1921.486          38.000  
G14                                                                  22671223.468    92834869.4403        884.853          23.000  
G17                                                                  24854387.775   101774562.8283       1613.560          22.000  
G21  24031736.267   126287664.687       -2635.393          47.000                                                                  
R04  23627891.120   126526283.2531        657.201          48.000    23627892.810    98409354.317         512.923          47.000  
R05  24230044.683   129523474.8243       3391.699          39.000    24230098.455   100740864.7683       2639.896          40.000  
R09  23088157.597   123289472.9983      -3879.534          30.000    23088166.008    95891847.3243      -3040.051          30.000  
R11  24280654.061   129748452.8173       2763.041          26.000    24280670.658   100915532.2883       2146.701          28.000  
R19  23990638.964   128334189.575       -2629.775          38.000    23990642.605    99815236.392       -2046.311          41.000  
R20  21953328.796   117394171.0092       -139.730          38.000    21953335.281    91306625.723        -108.484          38.000  
E02                                                                  26735270.674   107651855.4053      -2034.088          24.000  
E30                                                                  25440360.512   102437788.5393       -111.452          19.000  
E34  25230820.838   132588859.951        -567.844          49.000    25230825.885   101594078.013        -435.033          51.000  
E36  27601108.563   145044813.340       -2303.076          44.000    27601116.107   111138256.896       -1764.583          47.000  
J02  38894383.440   204391391.013         335.919          45.000    38894384.831   159266009.344         261.680          45.000  
J03  40442022.205   212524262.862        -618.528          48.000    40442022.375   165603404.608        -481.792          47.000  
J04                                                                  38508838.612   157687244.8781        -39.811          25.000  
J07  39037296.675   205142380.955        -107.184          38.000    39037296.788   159851211.823         -83.260          41.000  
C03  39387201.366   158595937.905        -107.231          36.000    39387204.145   205099508.2713       -137.646          29.000  
C04  39152265.773   157649948.841         -70.342          45.000    39152270.493   203876155.695         -91.155          43.000  
C07  38167004.515   153682746.345         207.866          44.000    38167012.274   198745644.864         269.150          42.000  
C10  39025087.172   157137854.0223        382.499          29.000                                                                  
C19                                                                  25873338.942   134729272.880        2191.464          41.000  
C20                                                                  25825179.014   134478484.205        -267.103          42.000  
C35                                                                  23744250.919   123642573.122         487.640          49.000  
C38                                                                  39698350.615   206719740.209         971.697          43.000  
C40                                                                  37839913.553   197042361.604         349.761          49.000  
C45                                                                  26483238.685   137905170.679       -3141.595          40.000  
C59                                                                  38960868.377   202879466.1113       -166.016          28.000  
> 2023 06 22 01 09 36.0060000  0 33                     
G01  21962326.935   115412822.489       -1490.403          48.000    21962328.338    89932134.463       -1161.732          46.000  
G02  23556638.001   123790999.912       -2029.085          48.000                                                                  
G03  22992518.035   120826551.595        2276.188          36.000    22992520.024    94150533.476        1772.884          36.000  
G08  24813289.034   130394864.345       -2468.858          43.000    24813294.968   101606294.830       -1925.047          39.000  
G14                                                                  22671007.820    92833986.5903        884.853          19.000  
G17                                                                  24853996.384   101772959.9903       1582.310          17.000  
G21  24032237.869   126290300.436       -2635.166          46.000                                                                  
R04  23627768.235   126525624.856         658.736          45.000    23627769.923    98408842.294         511.841          45.000  
R05  24229409.874   129520077.0232       3395.184          43.000    24229443.517   100738225.3442       2639.564          39.000  
R09  23088884.052   123293352.5423      -3877.097          30.000    23088896.297    95894879.8663      -3018.019          31.000  
R19  23991130.601   128336819.460       -2629.216          40.000    23991134.294    99817281.763       -2045.120          42.000  
R20  21953359.143   117394310.7082       -139.425          40.000    21953361.543    91306734.420        -109.050          39.000  
R21  25051174.053   134053892.2703       2180.856          26.000                                                                  
E02                                                                  26735775.925   107653890.1033      -2018.784          21.000  
E30                                                                  25440387.052   102437895.8223       -116.246          18.000  
E34  25230928.866   132589427.656        -568.214          48.000    25230933.827   101594512.978        -434.686          52.000  
E36  27601547.189   145047115.517       -2302.047          45.000    27601553.939   111140020.898       -1763.680          46.000  
J02  38894319.616   204391055.634         334.864          43.000    38894320.930   159265747.984         261.207          43.000  
J03  40442140.042   212524881.416        -618.584          49.000    40442140.130   165603886.577        -482.073          46.000  
J04                                                                  38508868.288   157687377.9533        -48.302          31.000  
J07  39037317.091   205142488.567        -108.450          39.000    39037317.309   159851295.673         -84.481          42.000  
C01                                                                  38676470.316   201398530.5243       -146.063          29.000  
C03  39387227.735   158596044.3143       -103.557          32.000    39387230.740   205099646.7913       -142.079          28.000  
C04  39152283.328   157650019.409         -70.518          45.000    39152288.129   203876247.045         -92.326          44.000  
C07  38166953.476   153682540.228         203.854          24.000    38166961.551   198745384.4383        262.729          22.000  
C10  39024991.866   157137470.1013        389.206          18.000                                                                  
C19                                                                  25872918.429   134727082.811        2189.234          43.000  
C20                                                                  25825229.994   134478750.704        -266.479          41.000  
C35                                                                  23744157.301   123642085.365         487.563          50.000  
C38                                                                  39698164.299   206718769.057         970.424          45.000  
C40                                                                  37839846.551   197042011.891         349.722          50.000  
C45                                                                  26483842.187   137908312.958       -3143.142          42.000  
C59                                                                  38960899.609   202879627.8793       -173.291          27.000  
> 2023 06 22 01 09 37.0060000  0 32                     
G01  21962610.436   115414312.291       -1489.391          48.000    21962611.697    89933295.329       -1160.383          47.000  
G02  23557023.961   123793027.814       -2026.766          47.000                                                                  
G03  22992085.269   120824277.044        2276.165          30.000    22992087.368    94148761.238        1769.971          30.000  
G08  24813758.737   130397332.299       -2467.917          41.000    24813764.386   101608217.879       -1922.543          41.000  
G14                                                                  22670788.985    92833090.3063        919.669          15.000  
G17                                                                  24853611.098   101771382.0613       1585.973          14.000  
G21  24032739.242   126292934.550       -2632.179          46.000                                                                  
R04  23627645.263   126524966.698         658.842          45.000    23627646.996    98408329.976         512.346          46.000  
R05                                                                  24228801.485   100735310.9833       2625.781          32.000  
R09  23089612.951   123297221.4053      -3879.580          31.000    23089623.694    95897897.8442      -3019.931          35.000  
R19  23991621.847   128339447.441       -2626.489          38.000    23991625.685    99819325.703       -2042.542          43.000  
R20  21953387.395   117394449.8452       -138.673          28.000    21953389.573    91306941.7233       -105.859          30.000  
E02                                                                  26736283.310   107655933.4673      -2036.490          21.000  
E15                                                                  27190551.166   109485081.5573       1137.101          26.000  
E30                                                                  25440416.085   102438013.2893       -115.638          29.000  
E34  25231036.917   132589994.835        -566.291          50.000    25231041.708   101594947.565        -434.051          53.000  
E36  27601985.068   145049415.867       -2298.658          42.000    27601991.718   111141783.488       -1761.168          46.000  
J02  38894256.049   204390721.158         334.377          43.000    38894257.298   159265487.394         260.382          44.000  
J03  40442257.773   212525499.695        -617.920          49.000    40442257.696   165604368.339        -481.552          46.000  
J04                                                                  38508880.301   157687426.6103        -39.173          24.000  
J07  39037337.786   205142597.462        -109.124          39.000    39037338.162   159851380.561         -86.282          43.000  
C01  38676495.843   155734221.9613       -120.859          28.000    38676491.731   201398641.9413        -64.453          28.000  
C03  39387254.657   158596152.7193       -110.301          33.000    39387257.548   205099785.0823       -131.955          29.000  
C04  39152301.044   157650090.579         -70.521          45.000    39152305.696   203876339.063         -91.665          46.000  
C07  38166900.283   153682291.1313        200.282          21.000    38166911.065   198745120.6513        293.979          18.000  
C10  39024899.628   157137099.5103        354.739          15.000                                                                  
C19                                                                  25872497.972   134724893.373        2190.039          44.000  
C20                                                                  25825281.244   134479016.482        -265.491          42.000  
C35                                                                  23744063.858   123641598.792         486.175          31.000  
C38                                                                  39697978.274   206717799.757         968.750          35.000  
C40                                                                  37839779.192   197041661.407         351.635          52.000  
C45                                                                  26484445.992   137911457.097       -3145.270          40.000  
> 2023 06 22 01 09 38.0060000  0 31                     
G01  21962893.541   115415800.695       -1487.999          47.000    21962895.015    89934455.170       -1159.654          47.000  
G02  23557409.535   123795053.709       -2025.389          47.000                                                                  
G03  22991652.435   120821948.2693       2270.799          28.000    22991654.947    94146990.738        1766.997          21.000  
G08  24814228.248   130399799.127       -2466.326          42.000    24814233.757   101610140.135       -1922.999          35.000  
G14                                                                  22670566.169    92832178.0113        902.918          15.000  
G17                                                                  24853229.102   101769817.9343       1554.723          12.000  
G21  24033240.114   126295566.448       -2631.561          44.000                                                                  
R04  23627521.813   126524306.590         657.404          40.000    23627523.921    98407816.564         512.289          45.000  
R05  24228154.784   129513372.4023       3342.690          32.000                                                                  
R09  23090345.698   123301150.0383      -3882.105          31.000    23090351.011    95900916.8742      -3016.518          27.000  
R19  23992112.414   128342072.530       -2622.832          36.000    23992116.620    99821367.621       -2041.482          42.000  
E02                                                                  26736787.359   107657962.6063      -2022.182          18.000  
E30  25440441.648   133690423.4211       -150.260          46.000    25440445.032   102438128.7511       -116.561          51.000  
E34  25231144.523   132590561.015        -566.209          36.000    25231149.482   101595381.440        -434.037          41.000  
E36  27602420.949   145051713.694       -2296.932          42.000    27602428.978   111143544.175       -1760.468          46.000  
J02  38894192.549   204390386.953         334.187          41.000    38894193.778   159265226.945         260.295          43.000  
J03  40442375.241   212526117.067        -617.090          47.000    40442375.326   165604849.444        -480.970          46.000  
J04                                                                  38508889.161   157687463.2773        -36.104          23.000  
J07  39037358.670   205142707.184        -109.450          38.000    39037359.114   159851466.026         -85.746          42.000  
C01  38676523.803   155734327.4253        -99.286          33.000    38676502.605   201398698.7373        -55.176          28.000  
C03  39387279.152   158596251.6603        -88.818          27.000    39387284.690   205099927.3683       -134.717          27.000  
C04  39152318.743   157650161.988         -71.393          43.000    39152323.544   203876431.433         -92.888          42.000  
C07  38166847.672   153682079.2683        232.326          19.000                                                                  
C10  39024812.598   157136748.7743        354.739          11.000                                                                  
C19                                                                  25872077.622   134722704.217        2188.410          42.000  
C20                                                                  25825332.137   134479280.709        -263.811          44.000  
C35                                                                  23743971.628   123641090.5133        478.559          25.000  
C38                                                                  39697793.247   206716826.5073        968.209          25.000  
C40                                                                  37839711.546   197041309.823         351.401          39.000  
C45                                                                  26485050.031   137914602.651       -3145.677          38.000  
C59                                                                  38960975.862   202880025.8123       -162.297          28.000  
> 2023 06 22 01 09 39.0060000  0 28                     
G01  21963176.576   115417288.479       -1486.696          46.000    21963178.160    89935614.522       -1159.013          45.000  
G02  23557795.036   123797078.571       -2024.044          46.000                                                                  
G03                                                                  22991229.493    94145240.3393       1735.269          20.000  
G08  24814697.567   130402265.146       -2464.838          40.000    24814702.929   101612059.7701      -1920.462          37.000  
G14                                                                  22670348.433    92831286.3473        912.999          15.000  
G21  24033740.741   126298197.150       -2630.331          43.000                                                                  
R04  23627398.555   126523645.9693        660.819          44.000    23627400.391    98407302.825         513.703          48.000  
R09  23091073.422   123305043.2573      -3881.914          29.000    23091079.580    95903948.3273      -3023.732          25.000  
R10  21954004.615   117027197.6413      -1012.386          30.000                                                                  
R19  23992603.001   128344696.469       -2623.481          37.000    23992607.108    99823408.429       -2041.655          43.000  
E02  26737523.395   140506633.3801      -2722.100          28.000    26737296.113   107660011.3123      -2031.603          19.000  
E30  25440470.035   133690575.346        -151.881          47.000    25440474.299   102438245.083        -116.324          50.000  
E34  25231252.246   132591126.683        -565.077          32.000    25231257.283   101595816.8013       -432.580          32.000  
E36  27602858.928   145054010.204       -2295.487          44.000    27602866.322   111145303.870       -1759.493          47.000  
J02  38894128.922   204390052.468         334.979          40.000    38894130.125   159264966.324         260.528          43.000  
J03  40442492.522   212526733.691        -616.052          46.000    40442492.769   165605329.930        -480.005          48.000  
J04                                                                  38508901.193   157687512.6873        -38.508          30.000  
J07  39037379.494   205142816.723        -108.113          36.000    39037380.006   159851551.421         -85.193          43.000  
C01  38676549.216   155734436.9823        -75.098          27.000                                                                  
C03                                                                  39387310.898   205100063.3923       -105.859          27.000  
C04  39152336.523   157650235.6863        -72.517          30.000    39152341.199   203876514.5533        -92.527          30.000  
C07  38166794.460   153681865.5143        219.870          17.000    38166870.007   198744906.9513        309.014          25.000  
C19                                                                  25871657.205   134720515.098        2191.405          40.000  
C20                                                                  25825382.741   134479544.411        -264.568          42.000  
C35                                                                  23743879.088   123640608.5023        479.258          24.000  
C38                                                                  39697607.002   206715856.7023        964.156          26.000  
C40                                                                  37839646.059   197040966.2103        354.077          30.000  
C45                                                                  26485654.133   137917748.311       -3145.748          38.000  
> 2023 06 22 01 09 40.0060000  0 27                     
G01  21963459.788   115418776.296       -1488.016          46.000    21963461.215    89936773.800       -1159.541          45.000  
G02  23558180.199   123799102.918       -2024.480          46.000                                                                  
G08  24815166.801   130404730.547       -2464.977          41.000    24815172.055   101613980.840       -1921.530          39.000  
G14                                                                  22670131.173    92830396.4193        890.535          27.000  
G21  24034241.168   126300826.981       -2629.260          43.000                                                                  
R04  23627275.065   126522984.9373        661.084          38.000    23627276.958    98406788.921         513.782          47.000  
R09  23091800.494   123308921.7692      -3882.324          30.000    23091819.901    95907022.9093      -3047.869          24.000  
R10  21954191.870   117028196.1213      -1014.116          28.000                                                                  
R19  23993093.363   128347319.375       -2622.452          34.000    23993097.405    99825448.356       -2040.586          43.000  
E02                                                                  26737802.299   107662049.9243      -2021.068          18.000  
E30  25440499.650   133690727.761        -153.568          48.000    25440503.004   102438361.8891       -118.564          51.000  
E34  25231361.561   132591699.5611       -565.262          28.000    25231364.313   101596249.3471       -431.437          32.000  
E36  27603295.624   145056305.764       -2294.956          42.000    27603302.999   111147062.779       -1758.788          46.000  
J02  38894065.342   204389717.953         334.711          39.000    38894066.451   159264705.664         260.801          42.000  
J03  40442609.872   212527350.048        -615.725          46.000    40442609.939   165605810.204        -479.598          46.000  
J04                                                                  38508952.908   157687724.4943        -41.220          28.000  
J07  39037400.309   205142926.479        -110.173          37.000    39037400.913   159851636.890         -85.436          43.000  
C03  39387109.902   158595570.6683        -43.922          29.000                                                                  
C04  39152355.532   157650312.1613        -68.652          28.000    39152362.028   203876623.3683       -128.760          27.000  
C07  38166743.410   153681659.2203        236.875          20.000                                                                  
C10  39024632.282   157136022.9073        416.010          10.000                                                                  
C19                                                                  25871236.776   134718325.374        2189.763          39.000  
C20                                                                  25825433.250   134479808.0083       -262.547          40.000  
C35                                                                  23743781.663   123640101.8093        510.508          20.000  
C38                                                                  39697423.714   206714902.4833        965.668          24.000  
C40                                                                  37839577.366   197040608.2803        373.289          23.000  
C45                                                                  26486258.357   137920894.277       -3145.863          36.000  
> 2023 06 22 01 09 41.0060000  0 28                     
G01  21963742.734   115420263.822       -1487.347          51.000    21963744.163    89937932.871       -1158.900          45.000  
G02  23558565.257   123801126.562       -2023.521          51.000                                                                  
G08  24815635.924   130407195.711       -2466.095          46.000    24815641.058   101615901.616       -1920.823          39.000  
G14                                                                  22669919.952    92829522.3501        887.335          39.000  
G21  24034741.513   126303456.050       -2627.625          49.000                                                                  
R04  23627151.493   126522323.5923        660.515          51.000    23627153.514    98406274.958         513.128          48.000  
R09  23092525.125   123312795.2423      -3884.583          37.000    23092552.582    95910066.1323      -3024.630          31.000  
R10  21954357.710   117029202.9792      -1014.318          46.000                                                                  
R19  23993583.520   128349941.164       -2621.936          40.000    23993587.553    99827487.488       -2039.554          40.000  
R21  25049173.054   134043184.2993       2164.232          24.000                                                                  
E02                                                                  26738303.819   107664071.0731      -2027.363          33.000  
E15                                                                  27189374.997   109480345.3641       1121.169          41.000  
E30  25440529.152   133690880.551        -152.991          50.000    25440531.836   102438478.894        -117.096          51.000  
E34  25231473.871   132592274.731        -566.567          31.000    25231472.080   101596682.432        -434.655          34.000  
E36  27603732.567   145058600.337       -2294.504          45.000    27603739.572   111148820.907       -1757.919          46.000  
J02  38894001.761   204389383.799         334.014          44.000    38894002.882   159264445.252         260.181          42.000  
J03  40442727.156   212527966.163        -615.756          51.000    40442727.119   165606290.264        -479.722          48.000  
J04                                                                  38508977.275   157687824.0511        -39.971          27.000  
J07  39037421.186   205143036.801        -110.601          39.000    39037422.080   159851722.797         -86.083          45.000  
C03  39387111.711   158595577.5863         55.811          27.000                                                                  
C07  38166693.244   153681457.4403        212.476          30.000    38166757.358   198744320.8533        308.132          26.000  
C10  39024534.978   157135631.2653        413.164          18.000                                                                  
C19                                                                  25870816.472   134716135.970        2189.252          45.000  
C20                                                                  25825483.693   134480070.8562       -262.729          45.000  
C35                                                                  23743689.851   123639623.3553        526.386          20.000  
C38                                                                  39697244.259   206713967.3463        959.271          26.000  
C40                                                                  37839506.737   197040240.7173        393.406          31.000  
C45                                                                  26486862.936   137924041.238       -3147.101          44.000  
> 2023 06 22 01 09 42.0060000  0 28                     
G01  21964025.760   115421751.383       -1487.888          49.000    21964027.211    89939092.031       -1159.898          45.000  
G02  23558950.297   123803150.109       -2023.867          48.000                                                                  
G08  24816105.259   130409661.813       -2466.239          43.000    24816110.294   101617823.291       -1922.224          39.000  
G14  22669704.284   119130095.6363       1138.452          48.000    22669704.043    92828634.671         887.421          47.000  
G21  24035241.860   126306085.051       -2629.318          46.000                                                                  
R04  23627028.170   126521664.0562        660.084          48.000    23627030.329    98405762.043         511.852          47.000  
R09  23093245.138   123316640.0883      -3885.751          28.000    23093272.095    95913055.5143      -3021.361          30.000  
R10  21954532.102   117030217.8722      -1015.436          44.000                                                                  
R19  23994073.649   128352562.796       -2621.982          38.000    23994077.710    99829526.554       -2040.316          39.000  
E02                                                                  26738809.036   107666103.5173      -2027.282          37.000  
E15  27189088.402   142879672.7231       1458.086          45.000    27189098.347   109479227.850        1117.266          46.000  
E30  25440557.455   133691033.418        -153.390          48.000    25440561.772   102438596.025        -117.493          51.000  
E34  25231580.751   132592850.7781       -564.255          36.000    25231578.764   101597115.129        -432.273          41.000  
E36  27604169.527   145060894.765       -2294.749          44.000    27604176.576   111150578.977       -1757.999          47.000  
J02  38893938.327   204389050.059         333.668          41.000    38893939.418   159264185.183         260.174          42.000  
J03  40442844.365   212528582.007        -616.066          48.000    40442844.324   165606770.158        -480.247          47.000  
J04                                                                  38508996.154   157687900.9263        -39.465          27.000  
J07  39037442.224   205143147.458        -111.016          39.000    39037443.213   159851809.051         -86.510          44.000  
C03  39387087.746   158595480.6563        157.666          26.000                                                                  
C07  38166639.725   153681244.6471        210.438          48.000    38166648.506   198743745.6831        272.195          48.000  
C10  39024438.447   157135241.9833        397.271          23.000                                                                  
C19                                                                  25870396.508   134713948.210        2185.256          37.000  
C20                                                                  25825534.258   134480334.7282       -264.973          44.000  
C35                                                                  23743604.391   123639177.8533        530.152          22.000  
C38                                                                  39697065.515   206713036.8463        948.448          26.000  
C40                                                                  37839442.489   197039906.0593        353.438          29.000  
C45                                                                  26487467.312   137927188.904       -3147.660          42.000  
C59                                                                  38960851.555   202879378.1643        -51.203          27.000  
> 2023 06 22 01 09 43.0060000  0 31                     
G01  21964308.932   115423239.330       -1487.707          49.000    21964310.358    89940251.500       -1159.640          46.000  
G02  23559335.607   123805173.893       -2023.242          49.000                                                                  
G08  24816574.714   130412128.325       -2466.300          42.000    24816579.502   101619745.249       -1922.559          37.000  
G14  22669487.230   119128956.6932       1139.240          47.000    22669488.606    92827747.226         887.476          47.000  
G21  24035742.274   126308714.230       -2628.719          48.000                                                                  
R04  23626905.163   126521004.1061        658.803          46.000    23626907.237    98405249.896         512.187          47.000  
R09  23093971.098   123320517.3203      -3882.261          36.000    23093992.452    95916050.3553      -3022.202          39.000  
R10  21954716.128   117031014.0313      -1014.802          44.000                                                                  
R11  24276590.755   129726739.7713       2781.154          30.000                                                                  
R19  23994563.715   128355184.662       -2621.282          39.000    23994567.633    99831565.782       -2038.507          40.000  
R21  25047499.322   134034227.8073       2195.508          31.000    25047557.977   104249087.8773       1718.742          30.000  
E02                                                                  26739312.879   107668132.7181      -2027.632          41.000  
E15  27188820.124   142878213.1341       1459.820          28.000    27188823.372   109478124.1383       1100.069          31.000  
E30  25440586.444   133691186.363        -152.586          47.000    25440590.728   102438713.236        -117.418          50.000  
E34  25231682.606   132593408.5791       -564.046          41.000    25231687.353   101597547.459        -432.146          46.000  
E36  27604606.323   145063189.324       -2294.069          45.000    27604613.177   111152337.195       -1757.674          47.000  
J02  38893874.892   204388716.200         333.908          42.000    38893875.958   159263925.062         259.929          43.000  
J03  40442961.541   212529197.648        -615.104          48.000    40442961.534   165607249.896        -479.669          47.000  
J04                                                                  38509007.779   157687948.9033        -29.307          25.000  
J07  39037463.225   205143257.753        -110.498          38.000    39037464.127   159851894.952         -85.879          44.000  
C01  38676372.542   155733725.9603         31.937          29.000    38676398.039   201398154.2893        -64.156          29.000  
C07  38166587.549   153681033.710         210.890          50.000    38166595.182   198743472.818         273.553          48.000  
C10  39024323.590   157134781.1721        385.606          48.000                                                                  
C19                                                                  25869978.032   134711763.7543       2154.172          22.000  
C20                                                                  25825585.199   134480599.3282       -265.318          45.000  
C29                                                                  24932091.427   129827941.8863      -1692.041          50.000  
C35                                                                  23743506.819   123638670.0263        493.098          31.000  
C38                                                                  39696877.583   206712058.1193        958.994          27.000  
C40                                                                  37839379.026   197039575.0371        358.209          34.000  
C45                                                                  26488071.500   137930336.024       -3147.365          41.000  
C59                                                                  38960872.216   202879485.6263       -151.367          28.000  
> 2023 06 22 01 09 44.0060000  0 33                     
G01  21964592.235   115424727.472       -1488.512          47.000    21964593.615    89941411.089       -1159.836          46.000  
G02  23559720.507   123807198.092       -2025.218          42.000                                                                  
G03                                                                  22989149.504    94136723.2243       1726.417          24.000  
G08  24817044.127   130414446.8673      -2468.701          37.000    24817048.940   101621665.7041      -1924.609          39.000  
G14  22669270.690   119127816.7111       1139.557          45.000    22669271.663    92826859.275         888.831          47.000  
G21  24036242.821   126311343.954       -2631.031          45.000                                                                  
R04  23626782.490   126520347.462         654.990          45.000    23626784.655    98404739.197         509.518          45.000  
R09  23094699.041   123324403.7973      -3887.940          34.000    23094716.157    95919071.0542      -3017.917          37.000  
R10  21954906.790   117032028.6632      -1013.851          38.000                                                                  
R11  24276072.436   129723970.3473       2778.282          30.000                                                                  
R19  23995053.952   128357807.346       -2624.624          36.000    23995058.049    99833605.673       -2040.749          42.000  
R21  25047102.395   134032104.0403       2231.081          27.000    25047126.396   104247344.0413       1727.861          34.000  
E02                                                                  26739817.069   107670162.3561      -2027.973          36.000  
E27  28383856.873   149158174.2813       2214.800          29.000                                                                  
E30  25440615.204   133691338.698        -151.863          46.000    25440620.461   102438829.960        -116.343          50.000  
E34  25231788.560   132593973.119        -564.401          46.000    25231794.126   101597980.061        -432.276          51.000  
E36  27605042.683   145065484.749       -2296.279          43.000    27605050.010   111154096.006       -1759.441          48.000  
J02  38893811.295   204388381.660         335.172          42.000    38893812.184   159263664.352         261.604          44.000  
J03  40443078.664   212529812.567        -614.689          45.000    40443078.588   165607729.033        -478.860          47.000  
J04                                                                  38509017.135   157687987.3163        -40.813          22.000  
J07  39037483.982   205143366.934        -108.394          36.000    39037484.932   159851980.059         -85.000          43.000  
C01  38676374.874   155733734.5023          1.025          28.000    38676406.952   201398200.1163        -81.201          28.000  
C03  39387276.329   158596240.7783       -109.180          28.000    39387262.299   205099810.5353       -125.928          28.000  
C07  38166534.909   153680821.944         212.780          48.000    38166542.870   198743199.069         274.360          44.000  
C10  39024227.744   157134394.890         385.916          47.000                                                                  
C19                                                                  25869570.593   134709642.5703       2144.919          20.000  
C20                                                                  25825636.425   134480865.4382       -268.367          44.000  
C29                                                                  24932414.505   129829635.9042      -1694.372          43.000  
C35                                                                  23743407.427   123638152.5913        491.551          31.000  
C38                                                                  39696691.458   206711088.6773        952.910          28.000  
C40                                                                  37839304.308   197039219.885         354.220          45.000  
C45                                                                  26488675.639   137933482.077       -3144.095          36.000  
C59                                                                  38960905.749   202879660.0043        -91.602          28.000  
> 2023 06 22 01 09 45.0060000  0 34                     
G01  21964875.629   115426216.652       -1489.720          48.000    21964877.052    89942571.468       -1161.598          45.000  
G02  23560105.973   123809223.605       -2025.521          45.000                                                                  
G08                                                                  24817521.180   101623599.8673      -1929.070          17.000  
G14  22669054.951   119126677.416        1137.817          46.000    22669055.423    92825971.564         886.902          45.000  
G21  24036743.642   126313975.147       -2630.738          45.000                                                                  
R04  23626660.536   126519694.1413        640.283          32.000    23626663.012    98404216.4683        500.000          31.000  
R09  23095426.946   123328281.4472      -3882.000          40.000    23095438.270    95922090.4902      -3019.244          39.000  
R10  21955101.367   117033044.0743      -1017.877          34.000                                                                  
R11  24275552.784   129721193.2943       2783.105          23.000                                                                  
R19  23995544.609   128360431.989       -2625.289          37.000    23995548.787    99835647.040       -2041.802          43.000  
R21  25046680.889   134029848.0713       2198.181          35.000    25046701.229   104245522.5883       1716.064          31.000  
E02                                                                  26740319.306   107672184.8581      -2022.357          39.000  
E15                                                                  27188319.534   109476095.3651       1118.939          30.000  
E27                                                                  28382890.159   114286135.8491       1705.042          33.000  
E30  25440643.470   133691490.581        -152.292          48.000    25440648.724   102438946.351        -116.804          50.000  
E34  25231899.157   132594538.032        -565.057          48.000    25231902.041   101598412.901        -433.589          51.000  
E36  27605479.523   145067781.858       -2296.769          42.000    27605486.921   111155856.174       -1760.733          46.000  
J02  38893747.312   204388045.861         335.726          45.000    38893748.327   159263402.719         261.427          45.000  
J03  40443195.653   212530427.049        -614.754          47.000    40443195.445   165608207.862        -479.306          45.000  
J04                                                                  38509023.397   157688013.1603        -39.345          21.000  
J07  39037504.365   205143474.214        -106.938          38.000    39037505.384   159852063.630         -83.273          41.000  
C01  38676398.491   155733829.8913        -56.885          28.000    38676415.059   201398242.2003        -16.699          27.000  
C03  39387287.745   158596286.2653        -87.549          32.000    39387277.008   205099887.3703       -144.629          28.000  
C07  38166481.680   153680610.664         211.262          48.000    38166488.944   198742925.160         273.356          46.000  
C08  40740314.166   164044366.8883        909.827          36.000                                                                  
C10  39024131.094   157134009.115         385.734          46.000                                                                  
C19                                                                  25869162.357   134707516.7693       2132.816          15.000  
C20                                                                  25825688.276   134481134.3361       -281.519          28.000  
C29                                                                  24932740.798   129831331.2702      -1696.022          37.000  
C35                                                                  23743308.624   123637654.2592        491.127          49.000  
C38                                                                  39696503.296   206710109.0743        970.188          32.000  
C40                                                                  37839236.536   197038866.089         353.801          47.000  
C45                                                                  26489279.251   137936625.935       -3143.039          39.000  
C59                                                                  38960910.144   202879683.6623        -98.730          28.000  
> 2023 06 22 01 09 46.0060000  0 33                     
G01  21965159.175   115427706.733       -1490.433          46.000    21965160.655    89943732.560       -1161.302          43.000  
G02  23560491.629   123811249.692       -2026.758          45.000                                                                  
G08                                                                  24817995.695   101625542.4073      -1960.320          14.000  
G14  22668838.032   119125539.203        1137.579          40.000    22668839.064    92825084.611         886.523          40.000  
G21  24037244.839   126316574.1163      -2635.107          28.000                                                                  
R04                                                                  23626547.644    98403736.3923        511.767          27.000  
R09  23096152.074   123332162.8972      -3881.747          38.000    23096162.133    95925109.3252      -3018.199          41.000  
R10  21955298.981   117034097.2663      -1019.434          39.000                                                                  
R19  23996035.772   128362609.8613      -2625.858          24.000                                                                  
R21  25046258.653   134027588.7883       2222.784          32.000    25046281.915   104243790.4693       1727.138          34.000  
E02                                                                  26740823.031   107674212.2761      -2019.455          32.000  
E15  27188034.420   142874084.8333       1452.463          33.000    27188051.159   109475008.7281       1117.319          37.000  
E27  28382464.088   149150855.8811       2218.732          33.000    28382466.779   114284437.570        1701.015          36.000  
E30  25440672.417   133691643.189        -152.749          46.000    25440677.344   102439063.241        -117.132          50.000  
E34  25232004.238   132595103.662        -566.089          46.000    25232009.889   101598846.279        -433.559          49.000  
E36  27605918.506   145070081.2463      -2302.830          26.000    27605925.396   111157621.3263      -1761.883          23.000  
J02  38893683.265   204387709.598         336.556          41.000    38893684.426   159263140.704         262.275          43.000  
J03  40443312.667   212531041.666        -614.461          45.000    40443312.446   165608686.744        -478.882          45.000  
J04                                                                  38509026.754   157688027.0783        -47.402          20.000  
J07  39037524.731   205143580.767        -106.039          36.000    39037525.628   159852146.679         -82.638          42.000  
C01  38676433.969   155733972.4943       -206.435          28.000                                                                  
C03                                                                  39387291.222   205099961.8273       -125.146          27.000  
C07  38166429.634   153680399.317         211.085          48.000    38166437.464   198742652.357         272.509          43.000  
C08  40740088.756   164043455.6332        912.408          32.000                                                                  
C10  39024035.146   157133623.371         386.165          45.000                                                                  
C19                                                                  25868756.231   134705401.8763       2128.812          12.000  
C20                                                                  25825747.242   134481442.7263       -231.294          13.000  
C29                                                                  24933102.609   129833207.4343      -1709.682          25.000  
C35                                                                  23743215.678   123637163.5632        490.262          47.000  
C38                                                                  39696317.570   206709141.9063        962.528          26.000  
C40                                                                  37839168.806   197038512.340         354.109          46.000  
C45                                                                  26489882.732   137939768.805       -3142.831          34.000  
C59                                                                  38960903.640   202879665.7403        -85.111          32.000  
> 2023 06 22 01 09 47.0060000  0 32                     
G01  21965442.888   115429197.635       -1491.558          43.000    21965444.373    89944894.319       -1162.535          41.000  
G02  23560877.299   123813276.495       -2027.107          42.000                                                                  
G03  22987888.688   120802169.4573       2227.055          21.000                                                                  
G08                                                                  24818471.915   101627492.4643      -1938.135          13.000  
G14  22668622.613   119124415.8193       1146.137          27.000    22668628.279    92824242.3623        891.871          28.000  
G21  24037746.533   126319210.4443      -2628.169          27.000                                                                  
R09  23096879.031   123336045.2841      -3879.915          38.000    23096888.596    95928127.3711      -3017.900          42.000  
R10  21955496.412   117035150.1563      -1018.701          29.000                                                                  
R11  24274486.751   129715497.0853       2808.451          34.000    24274495.915   100889869.1463       2156.698          37.000  
R19  23996528.156   128365244.1043      -2621.693          22.000                                                                  
R20                                                                  21953620.748    91307903.5103       -105.600          25.000  
R21  25045840.589   134025357.5663       2221.283          35.000    25045866.489   104242041.8863       1726.798          26.000  
E02                                                                  26741324.482   107676231.8413      -2026.935          34.000  
E15                                                                  27187775.910   109473907.2083       1110.387          29.000  
E27                                                                  28382060.741   114282796.7291       1699.303          28.000  
E30  25440701.637   133691796.251        -153.198          43.000    25440706.948   102439180.551        -117.072          47.000  
E34  25232110.968   132595669.848        -566.642          43.000    25232117.888   101599280.104        -434.017          49.000  
E36  27606360.498   145072403.9333      -2313.499          25.000    27606367.436   111159401.6513      -1759.386          22.000  
J02  38893619.116   204387372.702         337.480          39.000    38893620.368   159262878.169         262.725          40.000  
J03  40443429.644   212531656.171        -614.556          43.000    40443429.587   165609165.624        -478.975          44.000  
J04                                                                  38509034.223   157688057.2463        -30.200          18.000  
J07  39037544.889   205143686.527        -105.045          34.000    39037545.739   159852229.113         -82.036          39.000  
C01  38676490.000   155734198.3163       -334.717          28.000                                                                  
C07  38166379.172   153680188.415         211.252          36.000    38166385.268   198742383.6693        273.386          27.000  
C08  40739862.821   164042541.5693        913.012          26.000                                                                  
C10  39023944.703   157133238.501         386.212          30.000                                                                  
C20                                                                  25825803.132   134481733.9183       -280.590          11.000  
C35                                                                  23743115.884   123636673.5512        489.038          35.000  
C38                                                                  39696134.362   206708188.0453        964.494          25.000  
C40                                                                  37839100.992   197038159.068         352.811          41.000  
C45                                                                  26490486.136   137942910.616       -3140.354          29.000  
C59                                                                  38960914.602   202879752.6202        -86.179          35.000  
> 2023 06 22 01 09 48.0060000  0 30                     
G01  21965726.736   115430689.714       -1493.291          46.000    21965728.360    89946056.946       -1163.173          41.000  
G02  23561263.116   123815304.191       -2028.348          46.000                                                                  
G08                                                                  24818945.811   101629433.6033      -1938.135          11.000  
G14  22668428.296   119123358.7223       1131.879          37.000    22668427.755    92823421.9093        885.878          27.000  
R09  23097606.163   123339926.141       -3881.978          44.000    23097614.931    95931145.812       -3019.131          43.000  
R10  21955692.746   117036197.1403      -1019.622          29.000                                                                  
R11  24273935.783   129712552.6363       2763.134          36.000    24273936.824   100887544.8273       2152.734          34.000  
R19  23997019.842   128367874.7813      -2630.321          19.000                                                                  
R20  21953651.615   117396029.1553       -138.399          35.000    21953657.278    91308020.8643       -110.291          37.000  
R21  25045424.540   134023125.0493       2221.434          35.000    25045447.422   104240303.8023       1729.341          26.000  
E02                                                                  26741829.713   107678266.6691      -2023.176          26.000  
E15                                                                  27187501.395   109472801.5183       1098.816          17.000  
E27                                                                  28381647.267   114281131.9323       1695.854          29.000  
E30  25440731.423   133691950.125        -155.048          47.000    25440735.102   102439298.418        -118.718          47.000  
E34  25232218.479   132596236.897        -568.219          46.000    25232225.792   101599714.637        -435.183          49.000  
E36                                                                  27606805.552   111161165.1993      -1753.955          22.000  
J02  38893555.113   204387035.812         336.102          44.000    38893556.229   159262615.658         261.829          39.000  
J03  40443546.632   212532271.076        -615.846          47.000    40443546.635   165609644.768        -479.512          44.000  
J04                                                                  38509039.256   157688078.2423        -31.588          17.000  
J07  39037564.875   205143791.961        -106.007          36.000    39037565.771   159852311.250         -82.861          38.000  
C04  39152527.144   157651002.5333       -109.578          28.000                                                                  
C07  38166326.003   153679977.753         208.239          42.000    38166338.902   198742114.7582        271.292          43.000  
C08  40739640.504   164041649.1593        911.743          32.000                                                                  
C10  39023862.112   157132921.8313        378.040          30.000                                                                  
C20                                                                  25825855.507   134482006.0223       -258.805          16.000  
C35                                                                  23743032.776   123636184.3472        488.311          47.000  
C38                                                                  39695949.219   206707223.5543        969.389          31.000  
C40                                                                  37839034.378   197037806.497         351.911          46.000  
C45                                                                  26491089.400   137946051.975       -3141.942          34.000  
C59                                                                  38960931.141   202879790.7871        -87.007          42.000  
> 2023 06 22 01 09 49.0060000  0 30                     
G01  21966010.833   115432182.483       -1492.922          43.000    21966012.400    89947220.187       -1163.386          42.000  
G02  23561649.049   123817332.330       -2029.146          36.000                                                                  
G14  22668223.788   119122296.4193       1137.833          36.000    22668215.194    92822551.2293        876.465          30.000  
G17  24848878.338   130581736.5553       2090.398          35.000    24848893.551   101752063.9603       1634.037          23.000  
R04                                                                  23626195.245    98402255.9023        506.991          31.000  
R09  23098333.107   123343808.043       -3881.538          41.000    23098341.411    95934164.643       -3019.296          44.000  
R10  21955888.534   117037226.8152      -1019.851          34.000                                                                  
R19  23997511.998   128370507.1403      -2620.816          17.000    23997522.409    99843771.0493      -2061.822          25.000  
R20  21953686.665   117396228.2523       -139.872          28.000                                                                  
R21  25045011.289   134020913.9033       2221.351          35.000    25045031.327   104238571.4383       1718.458          28.000  
E02                                                                  26742331.423   107680285.9001      -2022.980          29.000  
E15                                                                  27187227.603   109471698.9303       1091.597          19.000  
E30  25440760.904   133692104.906        -155.077          43.000    25440764.334   102439417.052        -119.177          48.000  
E34  25232327.858   132596804.625        -567.887          41.000    25232333.786   101600149.660        -435.280          49.000  
E36                                                                  27607245.864   111162938.4483      -1762.444          22.000  
J02  38893491.090   204386699.107         335.978          40.000    38893492.124   159262353.318         261.752          42.000  
J03  40443663.666   212532886.254        -615.692          44.000    40443663.683   165610124.142        -479.437          46.000  
J04  38508651.006   202364326.5343         41.813          26.000    38509047.993   157688113.3213        -46.158          15.000  
J07  39037585.029   205143897.624        -107.289          32.000    39037585.814   159852393.562         -82.194          41.000  
C01  38676435.084   155733977.0033        -42.422          42.000                                                                  
C04  39152544.961   157651074.2453        -63.672          28.000                                                                  
C07  38166273.886   153679767.844         207.888          38.000    38166285.258   198741843.1152        271.118          38.000  
C08  40739411.648   164040728.1843        910.515          26.000                                                                  
C10  39023777.687   157132581.4633        389.702          27.000                                                                  
C20                                                                  25825910.376   134482292.2573       -261.248          17.000  
C35                                                                  23742939.354   123635695.8762        488.054          40.000  
C38                                                                  39695765.235   206706265.8603        970.879          26.000  
C40                                                                  37838966.832   197037454.413         351.400          43.000  
C45                                                                  26491692.685   137949193.471       -3142.430          32.000  
C59                                                                  38960947.863   202879877.306         -86.604          40.000  
> 2023 06 22 01 09 50.0060000  0 32                     
G01  21966294.981   115433675.650       -1493.432          42.000    21966296.618    89948383.699       -1163.878          43.000  
G02  23562034.583   123819326.8683      -2038.341          28.000                                                                  
G14  22668010.363   119121198.2713       1132.312          32.000    22668000.541    92821672.5513        901.439          27.000  
G17  24848480.545   130579646.3583       2089.229          32.000    24848487.050   101750415.9381       1626.950          30.000  
R04  23626074.226   126516554.5323        649.135          30.000    23626086.667    98401806.2103        499.042          35.000  
R09  23099060.157   123347689.860       -3881.854          40.000    23099068.157    95937183.849       -3018.987          43.000  
R10  21956079.533   117038258.6243      -1018.429          27.000                                                                  
R11                                                                  24272912.195   100883286.3293       2165.967          33.000  
R19  23998002.548   128373130.8543      -2620.587          17.000    23998015.796    99845823.6113      -2039.239          25.000  
R21                                                                  25044619.455   104236858.1433       1710.068          26.000  
E02  26742824.960   140534497.9161      -2640.918          28.000    26742837.411   107682323.8233      -2033.255          28.000  
E15                                                                  27186957.813   109470612.4543       1079.976          22.000  
E27                                                                  28380846.342   114277907.0313       1709.672          29.000  
E30  25440790.500   133692260.353        -155.532          44.000    25440794.583   102439536.179        -119.502          50.000  
E34  25232435.562   132597372.725        -568.204          42.000    25232441.321   101600584.880        -435.053          49.000  
E36                                                                  27607690.615   111164729.1823      -1758.074          21.000  
J02  38893427.088   204386362.475         336.238          39.000    38893428.011   159262090.950         262.410          43.000  
J03  40443780.841   212533501.403        -615.353          44.000    40443780.910   165610603.468        -479.532          47.000  
J04  38508641.710   202364284.9262         40.992          25.000    38509057.865   157688153.6183        -39.928          14.000  
J07  39037605.096   205144003.208        -106.301          29.000    39037605.894   159852475.845         -80.959          38.000  
C01  38676443.436   155734011.0803        -42.233          39.000    38676447.533   201398411.8233        -67.828          31.000  
C03  39387404.507   158596756.4913        -95.875          37.000                                                                  
C04  39152564.007   157651151.1833        -85.596          29.000                                                                  
C07  38166221.423   153679557.5213        209.941          43.000    38166231.236   198741571.7352        270.697          34.000  
C08  40739186.309   164039821.4553        891.000          25.000                                                                  
C10  39023686.834   157132215.6093        377.002          32.000                                                                  
C20                                                                  25825973.770   134482622.0193       -272.962          21.000  
C35                                                                  23742843.846   123635205.5013        488.380          40.000  
C38                                                                  39695574.355   206705272.2193        968.851          25.000  
C40                                                                  37838898.483   197037102.414         351.619          34.000  
C45                                                                  26492295.964   137952335.133       -3142.426          31.000  
C59                                                                  38960965.585   202879963.854         -86.121          38.000  
> 2023 06 22 01 09 51.0060000  0 31                     
G01  21966579.158   115435169.100       -1493.013          46.000    21966580.831    89949547.422       -1163.901          44.000  
G02  23562421.291   123821359.5713      -1959.945          26.000                                                                  
G03  22986063.507   120792578.4013       2280.201          24.000                                                                  
G14  22667795.384   119120068.4853       1134.991          34.000    22667787.977    92820801.8143        878.076          36.000  
G17  24848082.097   130577552.7383       2080.600          31.000    24848090.865   101748777.5903       1627.273          34.000  
R04  23625959.808   126515941.0243        645.020          33.000    23625967.853    98401321.7163        503.770          31.000  
R09  23099787.461   123351572.064       -3880.845          45.000    23099795.119    95940203.268       -3018.970          43.000  
R10  21956270.764   117039276.5733      -1019.028          32.000                                                                  
R19  23998495.687   128375769.3653      -2628.982          19.000    23998511.882    99847887.6623      -2041.609          30.000  
R20  21953743.235   117396531.0233       -112.395          26.000                                                                  
R21                                                                  25044195.167   104235091.4633       1724.944          27.000  
E02  26743328.162   140537138.789       -2641.453          33.000    26743337.958   107684338.9123      -2033.457          27.000  
E27                                                                  28380428.278   114276224.0233       1692.100          27.000  
E30  25440819.930   133692416.282        -155.755          45.000    25440824.402   102439655.614        -119.483          49.000  
E34  25232544.951   132597940.829        -567.681          48.000    25232549.611   101601020.277        -435.113          50.000  
E36                                                                  27608133.311   111166511.9913      -1761.669          23.000  
J02  38893363.047   204386025.776         336.990          42.000    38893363.891   159261828.608         262.654          45.000  
J03  40443897.808   212534116.435        -614.599          44.000    40443897.999   165611082.691        -479.236          47.000  
J04  38508635.075   202364242.4413         68.729          25.000    38509067.211   157688192.4723        -41.038          16.000  
J07  39037625.095   205144108.780        -103.849          34.000    39037626.044   159852558.147         -81.484          42.000  
C01  38676451.642   155734052.9931        -41.599          38.000    38676456.897   201398460.1073        -54.218          33.000  
C03  39387427.404   158596848.4763       -110.531          30.000    39387426.400   205100665.3583       -142.406          28.000  
C04  39152581.885   157651222.7953        -84.668          28.000                                                                  
C07  38166169.384   153679347.1261        208.962          43.000    38166175.221   198741300.0221        270.477          37.000  
C10  39023598.159   157131858.9163        388.672          32.000                                                                  
C20                                                                  25826033.497   134482932.7543       -279.929          21.000  
C35                                                                  23742744.763   123634730.4693        490.017          41.000  
C38                                                                  39695394.198   206704333.7593        959.706          25.000  
C40                                                                  37838830.671   197036750.400         353.050          45.000  
C45                                                                  26492899.375   137955476.851       -3140.498          34.000  
C59                                                                  38960982.019   202880050.238         -86.000          40.000  
> 2023 06 22 01 09 52.0060000  0 28                     
G01  21966863.397   115436662.557       -1493.472          47.000    21966864.990    89950711.151       -1163.715          46.000  
G14  22667585.251   119118963.6813       1137.425          37.000    22667574.838    92819929.2261        884.125          37.000  
G17                                                                  24847696.100   101747161.0813       1626.270          31.000  
R04                                                                  23625853.014    98400842.4383        500.727          30.000  
R09  23100514.617   123355453.994       -3882.128          46.000    23100521.936    95943222.580       -3018.719          44.000  
R10  21956455.906   117040296.0153      -1021.295          42.000                                                                  
R19  23998986.457   128378394.4383      -2621.553          19.000                                                                  
R21  25043750.988   134014169.9913       2179.643          28.000                                                                  
E02  26743830.844   140539779.136       -2640.658          29.000    26743837.172   107686349.6591      -2023.387          28.000  
E27                                                                  28380006.489   114274525.4153       1693.467          27.000  
E30  25440849.578   133692572.012        -156.221          45.000    25440853.867   102439774.948        -119.438          50.000  
E34  25232653.088   132598508.664        -568.101          45.000    25232658.087   101601455.355        -434.883          51.000  
E36                                                                  27608575.768   111168293.8233      -1762.037          28.000  
J02  38893298.881   204385688.553         337.288          42.000    38893299.903   159261565.881         262.852          45.000  
J03  40444014.688   212534730.848        -614.349          47.000    40444015.002   165611561.437        -478.824          45.000  
J04                                                                  38509077.486   157688234.8123        -51.228          16.000  
J07  39037645.012   205144213.847        -104.895          35.000    39037646.055   159852639.961         -81.737          42.000  
C01  38676460.297   155734078.4213        -42.016          34.000    38676465.304   201398503.9543        -54.913          33.000  
C03                                                                  39387451.512   205100796.0453        -95.996          27.000  
C04  39152605.570   157651318.9783        -65.576          28.000                                                                  
C07  38166117.264   153679136.997         209.803          48.000    38166131.703   198741028.040         272.430          46.000  
C10  39023501.608   157131469.3953        394.678          28.000    39023512.455   203205669.1083        493.966          24.000  
C20                                                                  25826093.318   134483244.5273       -271.839          22.000  
C35                                                                  23742655.932   123634242.2062        488.424          47.000  
C38                                                                  39695203.544   206703341.5413        960.355          26.000  
C40                                                                  37838763.024   197036397.903         352.592          46.000  
C45                                                                  26493502.657   137958618.090       -3141.905          35.000  
C59                                                                  38960998.348   202880136.099         -85.999          45.000  
> 2023 06 22 01 09 53.0060000  0 32                     
G01  21967147.614   115438155.890       -1493.902          48.000    21967149.281    89951874.766       -1164.166          47.000  
G02  23563246.677   123825696.9303      -2009.961          32.000                                                                  
G03                                                                  22985193.595    94120525.1161       1778.051          34.000  
G14  22667360.748   119117784.3433       1135.742          37.000    22667355.900    92819032.3431        873.389          31.000  
G17  24847282.094   130573347.7103       2087.842          33.000    24847297.131   101745527.6543       1627.490          31.000  
R04                                                                  23625722.688    98400299.9863        549.963          31.000  
R09  23101241.614   123359335.370       -3882.092          48.000    23101248.797    95946241.465       -3019.800          45.000  
R10  21956639.350   117041242.3673      -1027.760          31.000                                                                  
R19  23999478.354   128381025.7983      -2625.567          22.000    23999498.346    99851991.9303      -2030.219          29.000  
R20  21953801.098   117396839.5783       -140.714          25.000    21953806.415    91308675.2413        -78.577          32.000  
R21  25043345.581   134012000.8513       2193.870          28.000                                                                  
E02  26744334.493   140542411.9931      -2642.082          32.000    26744339.467   107688371.1951      -2028.571          25.000  
E27                                                                  28379586.176   114272833.0173       1699.070          27.000  
E30  25440879.078   133692727.235        -155.875          48.000    25440883.695   102439893.850        -118.901          51.000  
E34  25232759.303   132599076.124        -568.104          46.000    25232766.215   101601890.089        -434.832          52.000  
E36  27609006.732   145086309.8023      -2301.772          26.000    27609015.363   111170063.1911      -1765.093          28.000  
J02  38893234.593   204385350.641         337.903          45.000    38893235.646   159261302.563         262.991          45.000  
J03  40444131.378   212535344.491        -613.879          48.000    40444131.685   165612039.640        -478.348          46.000  
J04                                                                  38509085.457   157688266.5563        -62.470          15.000  
J07  39037664.800   205144317.947        -104.885          36.000    39037666.014   159852721.140         -82.325          44.000  
C01  38676470.933   155734120.7511        -40.726          40.000    38676476.539   201398557.4522        -54.694          38.000  
C03  39387297.633   158596326.1163        -39.502          33.000                                                                  
C04  39152623.926   157651392.0053        -62.109          33.000                                                                  
C07  38166064.957   153678926.075         211.224          45.000    38166078.190   198740755.402         272.267          45.000  
C08  40738494.843   164037044.0583        913.446          35.000                                                                  
C10  39023406.903   157131088.1493        393.056          36.000                                                                  
C20                                                                  25826150.287   134483541.7003       -210.663          30.000  
C35                                                                  23742560.686   123633753.3212        489.020          49.000  
C38                                                                  39695012.224   206702345.2163        975.434          35.000  
C40                                                                  37838694.892   197036044.765         352.948          47.000  
C45                                                                  26494105.840   137961758.401       -3140.914          36.000  
C59                                                                  38961014.766   202880221.246         -86.106          47.000  
> 2023 06 22 01 09 54.0060000  0 31                     
G01  21967431.714   115439649.083       -1492.976          47.000    21967433.390    89953038.256       -1163.279          46.000  
G02  23563618.986   123827652.5853      -2001.416          28.000                                                                  
G03                                                                  22984756.461    94118734.6033       1764.014          31.000  
G14  22667111.749   119116588.2802       1132.819          48.000    22667112.690    92818093.466         882.910          46.000  
G17                                                                  24846888.591   101743854.2783       1631.600          25.000  
R04  23625604.385   126514038.4273        642.396          28.000                                                                  
R09  23101968.726   123363217.556       -3883.336          46.000    23101975.622    95949260.895       -3020.377          46.000  
R10  21956837.196   117042297.3963      -1043.725          33.000                                                                  
R19  23999969.650   128383653.4643      -2612.381          22.000    23999992.583    99854048.7263      -2038.484          29.000  
R21  25042933.689   134009795.9173       2209.143          28.000                                                                  
E02  26744827.463   140545035.1781      -2642.590          26.000    26744839.728   107690386.0883      -2030.319          27.000  
E27                                                                  28379164.010   114271133.3083       1702.037          25.000  
E30  25440908.856   133692882.728        -156.344          41.000    25440913.481   102440013.035        -119.893          43.000  
E34  25232867.347   132599643.242        -566.742          47.000    25232874.062   101602324.668        -434.257          52.000  
E36  27609445.758   145088617.1723      -2290.629          26.000    27609449.902   111171813.2453      -1761.047          28.000  
J02  38893170.272   204385012.898         337.596          44.000    38893171.340   159261039.365         262.950          44.000  
J03  40444248.068   212535957.781        -613.198          48.000    40444248.189   165612517.508        -477.732          46.000  
J04                                                                  38509095.308   157688306.9993        -31.220          13.000  
J07  39037684.637   205144422.278        -105.076          36.000    39037685.835   159852802.347         -81.377          42.000  
C01  38676481.621   155734164.8821        -40.480          40.000    38676487.218   201398611.3132        -55.994          36.000  
C03  39387308.243   158596368.6943        -78.906          29.000                                                                  
C04  39152642.227   157651466.5793        -96.680          29.000                                                                  
C07  38166012.620   153678716.4883        211.892          50.000    38166023.312   198740482.432         273.007          44.000  
C08  40738264.195   164036131.3102        911.865          42.000                                                                  
C10  39023288.906   157130613.6163        396.673          36.000    39023305.568   203204592.3603        499.474          28.000  
C20                                                                  25826199.555   134483798.3503       -276.660          22.000  
C35                                                                  23742466.736   123633264.1372        489.441          47.000  
C38                                                                  39694815.049   206701360.8972        970.202          42.000  
C40                                                                  37838626.780   197035691.214         353.511          48.000  
C45                                                                  26494709.004   137964899.266       -3142.305          38.000  
C59                                                                  38961031.137   202880306.665         -86.834          46.000  
> 2023 06 22 01 09 55.0060000  0 35                     
G01  21967715.829   115441142.159       -1492.518          47.000    21967717.408    89954201.683       -1163.040          45.000  
G02  23563992.368   123829615.6043      -2027.748          32.000                                                                  
G03  22984335.255   120783496.1113       2215.593          41.000    22984325.983    94116971.6673       1766.306          32.000  
G14  22666895.226   119115338.0133       1131.409          47.000    22666895.646    92817210.644         886.383          48.000  
G17  24846427.366   130569007.8373       2092.043          43.000    24846430.202   101742016.7661       1630.429          38.000  
R04  23625495.835   126513457.3383        640.899          31.000                                                                  
R09  23102696.347   123367102.038       -3884.413          46.000    23102702.977    95952282.157       -3021.677          45.000  
R10  21957044.870   117043403.8483      -1056.402          29.000                                                                  
R11  24270322.412   129693243.9943       2771.391          31.000                                                                  
R19  24000463.337   128386294.6073      -2621.630          26.000    24000490.071    99856100.1103      -2040.447          36.000  
R20  21953852.654   117397116.1053       -141.879          26.000                                                                  
R21  25042517.897   134007571.2833       2208.243          30.000    25042521.507   104228126.0453       1709.976          22.000  
E02                                                                  26745344.900   107692420.2941      -2026.942          35.000  
E15                                                                  27185567.305   109465013.6623       1123.587          31.000  
E27  28378673.655   149130936.8993       2253.334          22.000    28378736.994   114269413.3093       1690.476          25.000  
E30  25440949.348   133693090.3231       -156.470          32.000    25440942.411   102440134.659        -123.210          25.000  
E34  25232975.940   132600210.419        -566.479          47.000    25232981.563   101602759.264        -434.178          51.000  
E36                                                                  27609884.574   111173563.4253      -1761.024          29.000  
J02  38893106.238   204384676.478         336.736          45.000    38893107.337   159260777.226         262.215          45.000  
J03  40444364.834   212536571.335        -612.931          49.000    40444364.956   165612995.608        -477.541          46.000  
J04                                                                  38509101.345   157688331.8863        -45.269          13.000  
J07  39037704.752   205144528.238        -105.281          35.000    39037706.022   159852885.017         -82.984          42.000  
C01  38676492.442   155734207.606         -40.057          39.000    38676497.955   201398666.1391        -56.897          38.000  
C03  39387320.549   158596418.2433        -63.525          29.000                                                                  
C04  39152661.083   157651541.8153        -84.717          30.000    39152654.292   203878145.0113       -108.887          28.000  
C07  38165960.281   153678505.3782        211.935          49.000    38165970.199   198740209.458         273.613          46.000  
C08  40738037.773   164035220.2722        910.217          41.000                                                                  
C10  39023175.704   157130157.2521        385.321          47.000    39023177.788   203203922.3313        499.817          41.000  
C20                                                                  25826254.159   134484081.8623       -258.909          24.000  
C29                                                                  24936042.181   129848514.9643      -1711.881          27.000  
C35                                                                  23742371.265   123632774.7532        489.439          49.000  
C38                                                                  39694627.433   206700390.9652        970.196          43.000  
C40                                                                  37838558.741   197035337.419         354.114          48.000  
C45                                                                  26495312.662   137968042.201       -3142.798          38.000  
C59                                                                  38961047.722   202880393.631         -87.454          47.000  
> 2023 06 22 01 09 56.0060000  0 30                     
G01  21967999.987   115442634.851       -1492.831          49.000    21968001.341    89955364.816       -1163.042          46.000  
G03                                                                  22983896.544    94115213.0961       1769.945          34.000  
G14  22666679.101   119114201.6733       1131.356          34.000    22666678.620    92816267.4431        881.177          38.000  
G17  24846018.450   130566914.2192       2094.713          46.000    24846021.426   101740385.419        1631.720          41.000  
R04  23625380.969   126512841.7553        648.130          32.000                                                                  
R09  23103424.158   123370987.401       -3886.945          47.000    23103430.442    95955304.097       -3023.547          45.000  
R11  24269811.096   129690511.0303       2768.976          34.000                                                                  
R19  24000962.363   128388963.7913      -2632.392          20.000                                                                  
R20  21953878.976   117397261.9333       -138.735          42.000    21953914.503    91309125.0573       -108.644          42.000  
R21  25042090.832   134005286.3523       2194.954          34.000    25042100.956   104226376.0473       1698.692          29.000  
E02                                                                  26745847.694   107694444.6931      -2028.313          35.000  
E15                                                                  27185294.915   109463917.2131       1122.144          30.000  
E30  25441000.172   133693357.5091       -156.519          31.000    25441002.364   102440347.8361       -122.595          38.000  
E34  25233083.910   132600777.165        -567.038          49.000    25233089.673   101603193.519        -434.374          51.000  
E36  27610330.206   145093264.2833      -2296.291          28.000    27610323.632   111175331.4361      -1764.143          26.000  
J02  38893042.333   204384340.158         336.088          46.000    38893043.284   159260515.173         261.232          46.000  
J03  40444481.576   212537184.409        -613.498          49.000    40444481.487   165613473.349        -477.978          47.000  
J07  39037724.958   205144634.614        -107.185          38.000    39037726.319   159852967.908         -84.445          43.000  
C01  38676503.224   155734250.632         -43.320          44.000    38676509.112   201398731.5951        -57.062          43.000  
C03  39387326.536   158596442.2183        -45.068          27.000                                                                  
C04  39152680.641   157651621.2363        -48.535          29.000    39152671.623   203878235.6203        -96.973          29.000  
C07  38165907.798   153678293.9182        210.859          49.000    38165917.221   198739935.942         272.849          47.000  
C08  40737811.169   164034309.6512        909.851          42.000                                                                  
C10  39023078.462   157129771.318         385.391          47.000    39023084.634   203203423.3072        498.099          45.000  
C20                                                                  25826315.651   134484402.3863       -235.898          23.000  
C35                                                                  23742276.626   123632284.7882        489.990          51.000  
C38                                                                  39694441.564   206699421.3692        969.661          45.000  
C40                                                                  37838490.559   197034982.964         354.539          49.000  
C45                                                                  26495916.506   137971185.872       -3145.357          39.000  
C59                                                                  38961064.378   202880480.856         -89.143          49.000  
> 2023 06 22 01 09 57.0060000  0 30                     
G01  21968283.971   115444127.285       -1493.196          47.000    21968285.326    89956527.740       -1163.002          46.000  
G03  22983484.966   120779028.3793       2257.959          35.000    22983475.784    94113490.5213       1734.717          36.000  
G14                                                                  22666473.883    92815420.9693        889.450          28.000  
G17                                                                  24845629.365   101738698.3753       1641.684          21.000  
R04                                                                  23625295.382    98398520.8763        543.632          28.000  
R09  23104152.187   123374873.846       -3887.966          45.000    23104158.148    95958326.866       -3022.735          44.000  
R11  24269297.284   129687766.3553       2750.728          25.000                                                                  
R19  24001453.742   128391592.5213      -2625.873          19.000                                                                  
R20  21953902.962   117397400.4112       -138.231          39.000    21953920.309    91309232.6802       -106.928          41.000  
R21  25041677.994   134003076.4803       2174.017          22.000                                                                  
E02  26746333.693   140552983.859       -2647.054          36.000    26746338.833   107696472.326       -2027.332          41.000  
E15  27185014.051   142858213.3923       1456.296          31.000    27185018.959   109462805.0341       1115.073          30.000  
E30  25441032.955   133693530.9333       -160.644          29.000    25441032.671   102440491.9881       -119.465          37.000  
E34  25233191.871   132601343.697        -567.163          46.000    25233197.336   101603627.619        -434.213          51.000  
E36                                                                  27610763.192   111177101.7033      -1754.460          25.000  
J02  38892978.425   204384004.193         335.343          44.000    38892979.193   159260253.383         261.490          45.000  
J03  40444598.336   212537797.232        -613.572          48.000    40444598.032   165613950.855        -477.965          48.000  
J07  39037745.075   205144741.437        -107.705          34.000    39037746.631   159853051.151         -84.053          43.000  
C01  38676514.335   155734293.952         -44.995          47.000    38676519.765   201398787.533         -57.025          41.000  
C03  39387301.674   158596392.2673        -45.408          41.000    39387309.345   205100055.6353        -57.734          34.000  
C04  39152698.805   157651693.4953        -74.023          30.000    39152687.055   203878316.2993       -108.447          27.000  
C07  38165855.270   153678082.0061        211.053          39.000    38165864.420   198739662.404         274.459          33.000  
C08  40737585.463   164033399.7632        908.691          42.000                                                                  
C10  39022986.055   157129394.0493        380.131          29.000    39022993.396   203202966.4703        498.401          29.000  
C20                                                                  25826363.614   134484651.8373       -246.789          23.000  
C35                                                                  23742182.892   123631794.0901        490.049          47.000  
C38                                                                  39694255.558   206698452.2251        968.020          43.000  
C40                                                                  37838422.405   197034628.135         354.152          45.000  
C45                                                                  26496520.398   137974330.339       -3145.605          39.000  
C59                                                                  38961081.134   202880568.530         -88.321          45.000  
> 2023 06 22 01 09 58.0060000  0 29                     
G01  21968567.959   115445619.762       -1492.424          50.000    21968569.356    89957690.734       -1162.938          44.000  
G03  22983059.970   120776794.3473       2217.041          34.000    22983062.608    94111798.5643       1739.365          27.000  
G14                                                                  22666265.193    92814565.9543        878.669          20.000  
R04                                                                  23625170.126    98397998.8953        513.448          27.000  
R09  23104880.424   123378761.940       -3888.390          48.000    23104886.264    95961350.948       -3025.011          44.000  
R11  24268779.796   129685000.1673       2755.937          30.000                                                                  
R19  24001945.018   128394220.6943      -2623.593          19.000                                                                  
R20  21953931.670   117397539.1962       -138.346          38.000    21953943.204    91309340.7032       -108.037          37.000  
R21  25041281.080   134000953.2873       2164.012          24.000                                                                  
E02  26746843.802   140555612.4911      -2651.599          33.000    26746841.388   107698500.826       -2027.841          38.000  
E15  27184735.702   142856750.2343       1458.161          31.000    27184744.840   109461701.6413       1101.020          31.000  
E30  25441058.157   133693662.7841       -163.154          31.000    25441061.634   102440611.8313       -121.073          34.000  
E34  25233299.815   132601910.504        -567.825          48.000    25233305.127   101604061.905        -434.194          50.000  
E36                                                                  27611204.293   111178877.1393      -1765.559          25.000  
J02  38892914.664   204383668.859         336.029          46.000    38892915.353   159259992.080         260.877          46.000  
J03  40444715.076   212538410.194        -613.015          50.000    40444714.547   165614428.475        -477.625          47.000  
J07  39037765.427   205144849.333        -108.462          36.000    39037767.091   159853135.167         -83.570          43.000  
C01  38676525.413   155734337.634         -44.305          43.000    38676530.602   201398844.087         -56.622          40.000  
C03  39387306.814   158596355.4971        -47.355          44.000    39387309.229   205100054.9261        -61.438          39.000  
C04  39152721.744   157651786.7833       -114.559          31.000    39152707.011   203878419.9993       -111.426          30.000  
C07  38165815.955   153677925.4863        215.161          32.000    38165830.552   198739494.5803        273.661          34.000  
C08  40737360.500   164032490.4611        908.319          40.000                                                                  
C10  39022898.002   157129039.6943        386.671          26.000                                                                  
C20                                                                  25826412.051   134484904.1763       -227.194          24.000  
C35                                                                  23742088.606   123631304.729         487.542          36.000  
C38                                                                  39694069.119   206697484.921         966.809          47.000  
C40                                                                  37838354.191   197034273.387         354.398          47.000  
C45                                                                  26497124.705   137977476.111       -3145.009          42.000  
C59                                                                  38961098.018   202880656.922         -89.295          44.000  
> 2023 06 22 01 09 59.0060000  0 28                     
G01  21968851.932   115447112.300       -1492.497          50.000    21968853.383    89958853.776       -1163.471          43.000  
G03                                                                  22982645.477    94110090.1081       1726.181          32.000  
G14                                                                  22666055.317    92813706.7113        865.091          20.000  
R04  23625087.086   126511267.9293        635.303          34.000    23625042.826    98397480.6203        501.029          34.000  
R09  23105608.890   123382651.928       -3891.119          47.000    23105614.748    95964376.468       -3026.689          43.000  
R10  21957901.555   117047971.0543      -1044.181          22.000                                                                  
R19  24002434.725   128396840.6063      -2619.211          17.000                                                                  
R20                                                                  21953969.980    91309355.7373       -109.015          27.000  
E02  26747336.461   140558214.3461      -2648.408          37.000    26747344.802   107700529.841       -2028.892          40.000  
E15  27184453.539   142855267.4573       1460.337          31.000    27184467.959   109460586.9423       1106.198          30.000  
E30  25441088.569   133693821.9181       -159.204          32.000    25441092.777   102440730.1741       -119.372          32.000  
E34  25233407.429   132602477.567        -567.467          43.000    25233413.031   101604496.408        -434.845          46.000  
E36                                                                  27611651.824   111180679.0953      -1767.406          22.000  
J02  38892850.996   204383334.449         333.906          46.000    38892851.725   159259731.464         259.710          45.000  
J03  40444831.800   212539023.470        -613.319          49.000    40444831.320   165614906.340        -477.851          47.000  
J07  39037786.121   205144958.476        -109.989          37.000    39037787.920   159853220.241         -85.887          43.000  
C01  38676536.687   155734381.737         -44.552          44.000    38676541.457   201398900.7421        -58.228          43.000  
C03  39387318.241   158596403.353         -48.594          45.000    39387319.418   205100109.2203        -62.474          39.000  
C04  39152747.070   157651887.9523       -106.543          32.000    39152732.017   203878549.5373       -143.408          30.000  
C07  38165776.606   153677766.6743        214.024          32.000    38165785.418   198739233.7412        277.834          31.000  
C08  40737134.948   164031583.151         906.799          40.000                                                                  
C10  39022824.225   157128742.2943        376.629          24.000                                                                  
C20                                                                  25826461.081   134485160.1823       -239.812          26.000  
C35                                                                  23741994.697   123630796.6223        479.932          31.000  
C38                                                                  39693883.953   206696519.264         964.580          47.000  
C40                                                                  37838285.909   197033918.760         353.965          43.000  
C45                                                                  26497729.370   137980623.598       -3148.760          44.000  
C59                                                                  38961114.886   202880746.122         -89.930          46.000  
> 2023 06 22 01 10 00.0060000  0 27                     
G01  21969135.798   115448604.119       -1492.199          49.000    21969137.298    89960016.268       -1163.092          45.000  
G03  22982210.697   120772332.1593       2233.350          35.000    22982215.309    94108328.7403       1726.210          32.000  
G14                                                                  22665843.528    92812839.0643        888.653          21.000  
G17                                                                  24844501.607   101734056.9851       1631.024          28.000  
R04  23624934.581   126510451.5783        669.904          31.000                                                                  
R09  23106337.690   123386543.834       -3891.892          46.000    23106343.556    95967403.515       -3028.164          44.000  
R19  24002925.751   128399467.3813      -2628.306          14.000                                                                  
E02  26747847.543   140560887.2313      -2648.523          34.000    26747849.367   107702559.874       -2029.597          36.000  
E15  27184185.695   142853859.9623       1446.288          25.000    27184194.218   109459485.1943       1096.012          25.000  
E30  25441117.704   133693975.9083       -167.228          35.000    25441122.236   102440855.4691       -124.490          36.000  
E34  25233515.615   132603044.869        -568.680          33.000    25233521.038   101604931.039        -434.848          37.000  
E36                                                                  27612091.914   111182451.1633      -1756.165          20.000  
J02  38892787.532   204383000.660         333.022          47.000    38892788.110   159259471.345         259.926          45.000  
J03  40444948.369   212539636.372        -612.540          48.000    40444948.081   165615383.969        -477.816          47.000  
J07  39037807.080   205145068.879        -111.263          37.000    39037808.976   159853306.229         -86.819          42.000  
C01  38676548.070   155734426.811         -45.488          45.000    38676552.651   201398959.380         -58.203          40.000  
C03  39387329.375   158596452.290         -49.208          45.000    39387332.320   205100175.5903        -62.760          40.000  
C04  39152771.918   157651988.2103       -105.127          32.000    39152758.879   203878689.4943       -141.541          36.000  
C07  38165725.125   153677559.6243        212.822          32.000    38165736.593   198739005.0993        276.239          30.000  
C08  40736909.818   164030677.176         905.585          41.000                                                                  
C10  39022739.881   157128402.9023        388.382          21.000                                                                  
C20                                                                  25826514.490   134485438.2923       -270.568          27.000  
C35                                                                  23741920.755   123630411.0213        491.847          30.000  
C38                                                                  39693698.534   206695555.085         963.201          47.000  
C40                                                                  37838218.011   197033565.093         344.072          32.000  
C45                                                                  26498334.340   137983772.691       -3149.583          45.000  
C59                                                                  38961131.870   202880836.341         -89.814          44.000  
> 2023 06 22 01 10 01.0060000  0 29                     
G01  21969419.658   115450095.685       -1491.484          49.000    21969421.184    89961178.486       -1162.056          45.000  
G03                                                                  22981786.194    94106572.3463       1724.533          29.000  
G14                                                                  22665631.948    92811973.5323        864.360          20.000  
G17  24844132.081   130556794.8723       2093.174          26.000    24844122.460   101732527.5901       1628.157          33.000  
R04  23624781.179   126509629.5653        650.025          35.000    23624790.409    98396416.9713        508.589          29.000  
R09  23107066.800   123390436.916       -3892.871          46.000    23107072.635    95970431.463       -3027.880          44.000  
R11  24267251.598   129676834.5373       2791.515          27.000                                                                  
R19  24003420.452   128402113.4643      -2613.099          14.000                                                                  
E02  26748349.152   140563544.5671      -2652.329          34.000    26748353.762   107704538.9751      -2031.015          40.000  
E15  27183940.738   142852572.3993       1412.251          25.000    27183920.025   109458380.6223       1097.501          25.000  
E30  25441140.190   133694093.7123       -155.938          32.000    25441154.384   102440985.2721       -123.511          28.000  
E34  25233625.131   132603594.4691       -565.255          28.000    25233628.890   101605365.256        -432.674          34.000  
E36                                                                  27612528.019   111184206.9923      -1760.925          18.000  
J02  38892724.217   204382667.349         332.600          46.000    38892724.648   159259211.656         259.304          45.000  
J03  40445064.943   212540248.971        -612.671          48.000    40445064.537   165615861.302        -477.212          45.000  
J04                                                                  38509145.843   157688514.2313        -39.188          10.000  
J07  39037828.117   205145179.806        -110.954          37.000    39037830.140   159853392.712         -86.735          42.000  
C01  38676559.416   155734472.168         -46.439          45.000    38676564.047   201399018.7553        -60.791          40.000  
C03  39387341.722   158596501.692         -50.285          44.000    39387345.338   205100243.4573        -63.530          37.000  
C04  39152797.695   157652091.8733       -105.420          34.000    39152785.024   203878825.6543       -135.010          34.000  
C07  38165673.373   153677350.9693        219.564          27.000    38165681.489   198738718.4993        267.699          29.000  
C08  40736685.034   164029771.902         905.273          43.000                                                                  
C10  39022650.743   157128043.3863        398.859          21.000                                                                  
C20                                                                  25826567.108   134485712.0813       -252.271          27.000  
C35                                                                  23741835.094   123629965.5053        487.608          37.000  
C38                                                                  39693513.476   206694591.660         963.595          46.000  
C40                                                                  37838153.447   197033193.6193        355.856          29.000  
C45                                                                  26498939.550   137986922.826       -3151.198          43.000  
C59                                                                  38961149.208   202880927.229         -89.637          44.000  
> 2023 06 22 01 10 02.0060000  0 33                     
G01  21969703.483   115451586.466       -1490.684          50.000    21969704.810    89962340.120       -1160.832          45.000  
G02  23566680.151   123843739.7713      -2020.539          29.000                                                                  
G03  22981369.781   120767912.8063       2224.801          37.000                                                                  
G14                                                                  22665418.166    92811097.8503        888.159          19.000  
G17  24843738.196   130554724.5303       2078.342          26.000                                                                  
R04                                                                  23624664.991    98395894.8693        502.234          29.000  
R09  23107796.310   123394331.448       -3895.884          47.000    23107801.959    95973460.522       -3030.104          44.000  
R10  21958396.746   117050769.7103      -1032.856          45.000                                                                  
R11  24266737.679   129674088.1733       2801.339          26.000                                                                  
R19  24003911.228   128404738.7393      -2610.172          16.000                                                                  
R21                                                                  25039650.841   104216177.6123       1724.161          15.000  
E02  26748855.441   140566168.1141      -2653.912          34.000    26748859.170   107706570.692       -2032.741          40.000  
E15  27183561.132   142850577.8103       1407.816          25.000    27183653.457   109457307.4793       1087.413          25.000  
E30  25441151.612   133694154.0821       -160.580          46.000    25441186.695   102441113.0281       -121.604          42.000  
E34  25233728.564   132604164.914        -565.169          28.000    25233736.495   101605798.544        -433.629          33.000  
E36                                                                  27612968.159   111185979.4743      -1752.649          16.000  
J02  38892660.990   204382334.518         332.777          47.000    38892661.362   159258952.274         259.406          46.000  
J03  40445181.582   212540861.015        -612.081          50.000    40445181.027   165616338.167        -477.056          47.000  
J04  38508598.884   202364052.6873         24.476          27.000                                                                  
J07  39037849.299   205145291.527        -112.947          37.000    39037851.420   159853479.736         -87.738          43.000  
C01  38676571.136   155734518.187         -48.042          48.000    38676575.448   201399077.5911        -60.913          46.000  
C03  39387354.473   158596551.407         -50.391          48.000    39387357.876   205100308.8313        -67.411          38.000  
C04  39152808.666   157652136.1733       -113.740          33.000    39152810.012   203878956.7413       -118.465          31.000  
C07  38165620.651   153677139.1503        216.138          28.000    38165630.720   198738453.8053        285.162          29.000  
C08  40736460.463   164028867.474         903.680          45.000                                                                  
C10  39022558.953   157127674.5883        389.438          22.000                                                                  
C19  25862145.789   104136143.6383       1620.922          10.000                                                                  
C20                                                                  25826618.837   134485981.4053       -271.652          32.000  
C35                                                                  23741741.486   123629465.0333        488.660          31.000  
C38                                                                  39693328.651   206693629.165         961.257          49.000  
C40                                                                  37838083.546   197032829.6083        365.641          28.000  
C45                                                                  26499545.017   137990074.204       -3152.747          44.000  
C59                                                                  38961166.745   202881019.107         -92.802          45.000  
> 2023 06 22 01 10 03.0060000  0 28                     
G01  21969986.738   115453075.659       -1487.874          49.000    21969988.213    89963500.562       -1159.185          46.000  
G02  23567059.869   123845735.3103      -2020.539          28.000                                                                  
G03  22980929.633   120765599.3903       2226.904          36.000                                                                  
G14                                                                  22665205.993    92810228.9013        873.671          19.000  
R04  23624535.388   126508313.7253        665.731          25.000    23624542.273    98395384.4873        509.977          28.000  
R09  23108526.418   123398229.492       -3899.900          46.000    23108531.831    95976492.309       -3032.787          44.000  
R10  21958561.621   117051802.2482      -1033.343          43.000                                                                  
R19  24004400.775   128407357.1953      -2609.925          17.000                                                                  
R21                                                                  25039236.086   104214451.8023       1719.474          19.000  
E02  26749357.323   140568815.7771      -2654.857          39.000    26749363.427   107708600.8851      -2035.563          44.000  
E30  25441182.834   133694331.954        -161.907          50.000    25441227.353   102441236.058        -127.876          34.000  
E34  25233841.224   132604728.903        -563.031          30.000    25233843.537   101606230.720        -430.788          27.000  
J02  38892597.983   204382003.395         329.819          45.000    38892598.479   159258694.250         257.474          45.000  
J03  40445297.905   212541472.486        -610.755          49.000    40445297.461   165616814.675        -475.957          47.000  
J04  38508584.762   202363977.8603         54.463          32.000    38509156.008   157688555.5643        -32.624          13.000  
J07  39037870.978   205145405.685        -114.178          36.000    39037873.162   159853568.729         -90.141          43.000  
C01  38676583.203   155734566.208         -49.301          47.000    38676587.552   201399139.7171        -64.410          43.000  
C03  39387367.572   158596603.009         -52.284          45.000    39387370.668   205100375.0361        -67.891          43.000  
C04  39152811.912   157652149.6093        -99.410          36.000    39152835.507   203879089.0033       -120.703          31.000  
C07  38165569.404   153676932.0823        215.539          29.000    38165574.755   198738162.9543        280.038          29.000  
C08  40736236.610   164027965.711         899.518          43.000                                                                  
C10  39022466.082   157127300.3073        389.435          21.000                                                                  
C20                                                                  25826667.835   134486236.0883       -265.499          28.000  
C35                                                                  23741645.396   123628977.6333        492.948          30.000  
C38                                                                  39693144.311   206692669.483         957.772          47.000  
C40                                                                  37838017.215   197032484.6373        371.091          28.000  
C45                                                                  26500150.974   137993229.088       -3156.215          42.000  
C59                                                                  38961184.820   202881113.428         -95.789          45.000  
> 2023 06 22 01 10 04.0060000  0 27                     
G01  21970269.818   115454563.149       -1487.445          49.000    21970271.255    89964659.605       -1159.062          46.000  
G02  23567434.823   123847704.8093      -2013.094          33.000                                                                  
G03  22980433.674   120762993.9483       2257.390          42.000    22980430.439    94101031.9511       1758.912          42.000  
G14                                                                  22664990.466    92809346.2903        879.354          19.000  
R04  23624421.879   126507705.4853        645.798          27.000    23624416.832    98394861.2153        502.341          26.000  
R09  23109257.296   123402132.258       -3905.310          47.000    23109262.647    95979527.803       -3037.362          45.000  
R10  21958751.910   117052836.6732      -1035.864          43.000                                                                  
R19  24004890.953   128409979.1403      -2611.897          18.000                                                                  
E02  26749859.609   140571460.7331      -2660.227          37.000    26749869.520   107710638.174       -2039.726          45.000  
E30  25441216.593   133694493.695        -163.143          49.000    25441259.338   102441408.0083       -133.211          29.000  
E34  25233944.338   132605291.887        -562.964          30.000    25233950.570   101606662.022        -432.141          37.000  
J02  38892535.472   204381674.696         326.457          45.000    38892535.917   159258438.051         256.692          45.000  
J03  40445414.239   212542083.831        -612.162          49.000    40445413.780   165617291.016        -476.431          47.000  
J04  38508551.027   202363801.3493          1.367          32.000    38509160.764   157688574.8913        -30.193          13.000  
J07  39037893.328   205145513.4263       -119.804          36.000    39037895.581   159853660.474         -93.325          44.000  
C01  38676596.330   155734626.5403        -63.477          43.000    38676600.163   201399206.8143        -67.139          37.000  
C03  39387381.161   158596657.240         -56.490          45.000    39387384.030   205100445.214         -72.535          40.000  
C04  39152774.811   157652000.2793        -76.123          43.000    39152778.236   203878862.7283        -99.115          41.000  
C07  38165518.062   153676726.0113        212.924          30.000    38165521.711   198737886.5643        281.118          22.000  
C08  40736013.534   164027067.253         897.064          41.000    40736016.564   212123125.677        1159.033          38.000  
C10  39022371.541   157126919.7953        387.380          20.000                                                                  
C20                                                                  25826719.640   134486505.9633       -274.786          21.000  
C35                                                                  23741548.989   123628475.2673        493.305          34.000  
C38                                                                  39692960.783   206691713.704         953.416          46.000  
C40                                                                  37837946.620   197032115.3483        359.867          28.000  
C45                                                                  26500757.727   137996388.758       -3161.307          39.000  
C59                                                                  38961203.888   202881212.3613       -116.699          39.000  
> 2023 06 22 01 10 05.0060000  0 29                     
G01  21970552.669   115456049.756       -1486.449          49.000    21970554.135    89965817.997       -1157.663          45.000  
G02  23567816.692   123849718.6262      -2012.422          33.000                                                                  
G03  22980033.402   120760889.9433       2237.305          40.000    22980012.697    94099310.0803       1758.576          33.000  
G14                                                                  22664776.242    92808469.5103        885.656          29.000  
R04  23624304.108   126507075.0523        639.776          27.000    23624303.806    98394390.2923        497.789          26.000  
R05  24211198.241   129422729.5793       3378.465          36.000    24210990.359   100661226.1133       2628.430          34.000  
R09  23109988.729   123406037.789       -3906.496          44.000    23109994.004    95982565.373       -3036.495          45.000  
R10  21958944.316   117053872.3122      -1035.652          43.000                                                                  
R19  24005380.022   128412595.6203      -2607.300          16.000                                                                  
E02  26750366.811   140574145.4401      -2658.435          35.000    26750375.639   107712679.9381      -2038.568          42.000  
E30  25441245.058   133694656.092        -161.822          48.000    25441291.043   102441535.4823       -122.506          23.000  
E34  25234056.482   132605854.024        -562.754          30.000    25234057.902   101607092.672        -429.785          35.000  
E36                                                                  27614275.100   111191242.2553      -1736.535          15.000  
J02  38892473.168   204381347.353         328.054          42.000    38892473.675   159258183.036         256.940          43.000  
J03  40445530.472   212542694.890        -610.497          48.000    40445530.172   165617767.231        -476.356          46.000  
J04  38508548.522   202363787.6013          5.695          33.000    38509170.069   157688613.9063        -42.888          13.000  
J07  39037916.082   205145633.0922       -119.823          36.000    39037918.475   159853749.6691        -92.359          44.000  
C01  38676610.527   155734683.2863        -51.611          43.000    38676615.786   201399288.0923        -73.730          38.000  
C03  39387395.117   158596712.952         -55.657          47.000    39387397.866   205100517.167         -70.935          39.000  
C04  39152786.969   157652048.9953        -79.346          40.000    39152794.967   203878877.7791        -97.534          35.000  
C07  38165464.763   153676510.5853        213.534          40.000    38165468.948   198737611.4453        273.408          31.000  
C08  40735790.999   164026170.784         897.504          41.000    40735794.042   212121966.363        1159.619          37.000  
C10  39022276.287   157126535.7943        392.912          18.000                                                                  
C20                                                                  25826771.134   134486774.1743       -253.367          22.000  
C35                                                                  23741452.152   123627970.8133        501.719          28.000  
C38                                                                  39692777.694   206690760.135         953.580          46.000  
C40                                                                  37837879.981   197031769.7793        371.923          29.000  
C45                                                                  26501365.063   137999551.091       -3161.572          41.000  
C59                                                                  38961224.536   202881320.3933        -95.361          38.000  
> 2023 06 22 01 10 06.0060000  0 30                     
G01  21970835.600   115457536.049       -1487.152          49.000    21970836.880    89966976.154       -1158.730          45.000  
G02  23568200.018   123851732.5563      -2017.365          29.000                                                                  
G03  22979602.539   120758626.0613       2224.609          44.000    22979582.627    94097548.9811       1745.014          42.000  
G14                                                                  22664557.477    92807567.7421        880.139          36.000  
R04  23624184.578   126506434.9263        660.574          27.000    23624198.001    98393949.9103        506.838          26.000  
R05  24210496.902   129419156.0463       3381.569          39.000    24210376.213   100658704.9573       2627.149          36.000  
R09  23110720.192   123409943.395       -3906.747          45.000    23110725.461    95985603.109       -3037.888          43.000  
R10  21959138.272   117054908.1612      -1037.176          45.000                                                                  
R19  24005869.205   128415212.3803      -2610.272          15.000                                                                  
R21  25038020.873   133983507.2723       2200.277          26.000                                                                  
E02  26750874.921   140576793.3971      -2662.258          40.000    26750882.193   107714718.873       -2040.272          46.000  
E30  25441274.847   133694818.255        -162.706          48.000    25441277.879   102441483.5291       -125.338          52.000  
E34  25234162.532   132606419.0781       -561.153          30.000    25234164.757   101607523.081        -429.846          37.000  
E36                                                                  27614708.566   111192987.2733      -1754.442          14.000  
J02  38892410.896   204380997.6633        325.952          43.000    38892411.249   159257921.6931        255.280          43.000  
J03  40445646.711   212543305.319        -610.493          48.000    40445646.277   165618242.879        -475.890          45.000  
J04  38508531.239   202363696.8173         10.614          31.000                                                                  
J07  39037938.627   205145752.3282       -120.010          37.000    39037941.072   159853842.611         -93.676          43.000  
C01  38676624.792   155734741.0073        -51.563          44.000    38676629.439   201399358.6933        -67.065          44.000  
C03  39387408.953   158596768.235         -55.256          46.000    39387411.883   205100588.751         -72.273          43.000  
C04  39152805.980   157652125.1591        -75.220          45.000    39152812.378   203878968.5013        -96.885          42.000  
C07  38165410.197   153676292.7383        214.705          38.000    38165416.826   198737340.4363        272.583          34.000  
C08  40735568.379   164025274.194         896.033          43.000    40735572.359   212120806.850        1159.125          39.000  
C10  39022180.272   157126149.5713        382.040          19.000                                                                  
C20                                                                  25826823.321   134487046.0483       -261.877          22.000  
C35                                                                  23741358.679   123627484.3313        500.395          35.000  
C38                                                                  39692594.534   206689806.294         953.192          46.000  
C40                                                                  37837809.400   197031402.1323        364.168          28.000  
C45                                                                  26501972.344   138002713.185       -3161.998          38.000  
C59                                                                  38961244.046   202881421.4773        -98.121          37.000  
> 2023 06 22 01 10 07.0060000  0 30                     
G01  21971118.431   115459022.523       -1486.396          48.000    21971119.810    89968134.431       -1157.142          43.000  
G02  23568584.465   123853745.5842      -2012.016          33.000                                                                  
G03  22979160.371   120756302.4773       2243.213          39.000    22979151.324    94095782.4323       1754.541          42.000  
G14  22664312.408   119101835.5842       1129.810          45.000    22664320.085    92806686.929         879.987          45.000  
R04  23624065.139   126505795.7633        630.365          27.000    23624084.556    98393477.6943        514.948          25.000  
R05  24209774.289   129415117.5313       3378.516          41.000    24209751.896   100656109.4223       2629.505          35.000  
R09  23111451.776   123413849.817       -3907.611          46.000    23111456.913    95988641.441       -3039.501          43.000  
R10  21959331.029   117055944.7092      -1037.315          45.000                                                                  
R19  24006356.956   128417821.6613      -2605.979          14.000                                                                  
R21  25037614.396   133981331.7383       2201.762          26.000                                                                  
E02  26751381.248   140579457.0121      -2659.834          38.000    26751388.516   107716758.362       -2039.636          42.000  
E30  25441305.453   133694980.773        -161.829          47.000    25441308.053   102441608.098        -125.272          50.000  
E34                                                                  25234271.624   101607953.465        -429.659          41.000  
E36                                                                  27615143.459   111194738.4763      -1759.417          14.000  
J02  38892348.836   204380671.8291        326.532          44.000    38892349.213   159257667.0721        254.590          44.000  
J03  40445762.764   212543915.635        -610.202          48.000    40445762.471   165618718.422        -475.329          46.000  
J04  38508529.642   202363688.7413         17.117          34.000                                                                  
J07  39037961.321   205145870.9033       -119.089          37.000    39037963.847   159853935.785         -93.179          43.000  
C01  38676638.964   155734798.2953        -57.910          39.000    38676643.865   201399434.2843        -69.043          37.000  
C03  39387422.925   158596823.737         -56.061          47.000    39387425.785   205100660.478         -71.930          43.000  
C04  39152824.912   157652201.0311        -77.344          40.000    39152831.280   203879067.1831       -100.041          37.000  
C07  38165357.352   153676078.1083        213.207          35.000    38165361.981   198737055.1463        277.518          30.000  
C08  40735345.912   164024377.930         896.057          41.000    40735349.076   212119647.794        1159.351          34.000  
C10  39022081.940   157125753.1813        391.103          19.000                                                                  
C20                                                                  25826895.672   134487423.1883       -258.972          23.000  
C35                                                                  23741262.836   123626984.9583        495.751          36.000  
C38                                                                  39692411.412   206688852.927         952.558          45.000  
C40                                                                  37837738.055   197031031.0813        365.610          27.000  
C45                                                                  26502579.748   138005875.920       -3163.024          39.000  
C59                                                                  38961264.233   202881526.7981       -100.417          43.000  
> 2023 06 22 01 10 08.0060000  0 31                     
G01  21971401.185   115460507.766       -1484.250          46.000    21971402.373    89969291.830       -1156.406          43.000  
G02  23568961.900   123855730.5973      -1993.006          29.000                                                                  
G03  22978729.779   120754039.1533       2237.012          38.000    22978727.787    94094048.6263       1743.994          41.000  
G14  22664099.031   119100705.7742       1130.688          46.000    22664100.634    92805806.599         880.438          47.000  
R04  23623945.536   126505155.3023        650.670          27.000    23623962.664    98392969.9673        515.430          27.000  
R05  24209135.269   129411701.9673       3374.461          37.000    24209125.281   100653498.4683       2631.077          33.000  
R09  23112183.723   123417758.886       -3911.178          45.000    23112188.956    95991681.800       -3041.710          43.000  
R10  21959525.687   117056982.3562      -1037.085          42.000                                                                  
R11                                                                  24263646.830   100844778.2363       2164.273          26.000  
R19  24006845.320   128420433.7113      -2605.979          11.000                                                                  
E02  26751881.893   140582087.9361      -2664.656          35.000    26751895.634   107718799.456       -2042.048          43.000  
E15                                                                  27181910.179   109450287.3953       1088.921          30.000  
E30  25441337.678   133695143.782        -162.924          48.000    25441340.069   102441732.975        -125.529          51.000  
E34  25234373.818   132607524.429        -559.517          39.000    25234378.209   101608382.634        -428.467          42.000  
E36                                                                  27615577.694   111196487.6163      -1748.969          13.000  
J02  38892286.705   204380345.483         327.055          43.000    38892286.985   159257413.373         255.384          43.000  
J03  40445878.782   212544525.433        -609.137          48.000    40445878.464   165619193.607        -474.559          46.000  
J04  38508521.336   202363644.9233          9.277          28.000    38508657.842   157686515.6523        -27.197          32.000  
J07  39037984.488   205145992.8183       -122.281          37.000    39037986.894   159854030.394         -95.719          44.000  
C01  38676653.415   155734855.7191        -53.462          45.000    38676657.502   201399505.4903        -72.656          39.000  
C03  39387437.188   158596880.594         -57.420          46.000    39387439.999   205100733.998         -73.854          42.000  
C04  39152844.675   157652280.8993        -85.791          34.000    39152850.366   203879165.7781        -99.710          36.000  
C07  38165298.970   153675847.4773        216.334          39.000    38165307.765   198736772.5373        282.830          32.000  
C08  40735123.929   164023483.621         893.115          39.000    40735127.277   212118491.183        1155.450          32.000  
C10  39021980.134   157125343.4193        398.572          21.000                                                                  
C20                                                                  25826955.132   134487732.7143       -271.263          23.000  
C35                                                                  23741168.325   123626492.8463        497.764          27.000  
C38                                                                  39692228.583   206687901.611         950.272          44.000  
C40                                                                  37837666.402   197030658.2673        364.681          32.000  
C45                                                                  26503187.531   138009041.138       -3166.636          39.000  
C59                                                                  38961283.512   202881627.5423       -102.589          41.000  
