     3.02           OBSERVATION DATA    M: Mixed            RINEX VERSION / TYPE
RTKCONV 2.4.3 b33                       20211015 045130 UTC PGM / RUN BY / DATE 
log: C:\Users\Taro\Dropbox\github\gnss-visibility\LOG0011.  COMMENT             
format: u-blox                                              COMMENT             
                                                            MARKER NAME         
                                                            MARKER NUMBER       
                                                            MARKER TYPE         
                                                            OBSERVER / AGENCY   
                                                            REC # / TYPE / VERS 
                                                            ANT # / TYPE        
 -3961834.7597  3348984.6847  3698304.9852                  APPROX POSITION XYZ 
        0.0000        0.0000        0.0000                  ANTENNA: DELTA H/E/N
G    8 C1C L1C D1C S1C C2L L2L D2L S2L                      SYS / # / OBS TYPES 
R    8 C1C L1C D1C S1C C2C L2C D2C S2C                      SYS / # / OBS TYPES 
E    8 C1C L1C D1C S1C C7Q L7Q D7Q S7Q                      SYS / # / OBS TYPES 
J    8 C1C L1C D1C S1C C2L L2L D2L S2L                      SYS / # / OBS TYPES 
C    8 C1I L1I D1I S1I C7I L7I D7I S7I                      SYS / # / OBS TYPES 
  2021    10    15     4    43   55.0010000     GPS         TIME OF FIRST OBS   
  2021    10    15     4    49   50.0010000     GPS         TIME OF LAST OBS    
G                                                           SYS / PHASE SHIFT   
R                                                           SYS / PHASE SHIFT   
E                                                           SYS / PHASE SHIFT   
J                                                           SYS / PHASE SHIFT   
C                                                           SYS / PHASE SHIFT   
  0                                                         GLONASS SLOT / FRQ #
 C1C    0.000 C1P    0.000 C2C    0.000 C2P    0.000        GLONASS COD/PHS/BIS 
                                                            END OF HEADER       
> 2021 10 15  4 43 55.0010000  0 22                     
G28  23974091.067   125984698.023        -649.716          36.000                                                                  
G13  21486099.082   112910210.9061      -3226.872          48.000                                                                  
G14  24321982.250   127812878.9831      -1330.619          45.000    24321978.651    99594430.8381      -1037.051          39.000  
G15  20540134.116   107939132.088       -1448.298          50.000    20540129.842    84108397.330       -1128.653          43.000  
J 7  37553514.580   197345050.2281      -1383.666          40.000    37553512.938   153775362.034       -1078.302          46.000  
C 3  38087310.904   198330622.457       -1419.514          43.000    38087304.223   153361790.0891      -1097.771          49.000  
C 8  36525063.414   190195588.5931      -1805.494          46.000    36525055.911   147071263.961       -1396.141          52.000  
C13  36467307.948   189894841.872       -1464.988          50.000    36467305.609   146838726.5331      -1132.755          47.000  
C16  37786774.313   196765648.2921      -1214.186          45.000    37786773.937   152151678.8651       -938.864          48.000  
C24  25668825.763   133664313.746       -3813.792          43.000                                                                  
C 6  37805625.174   196863808.890       -1086.773          36.000    37805615.636   152227548.8811       -840.994          40.000  
R10  20889889.857   111354865.9471      -2602.887          48.000                                                                  
R 1  20633438.014   110297548.403         -52.670          39.000    20633438.475    85786987.3982        -40.861          36.000  
R 8  20923581.080   112044824.674       -2387.557          49.000    20923579.646    87145969.3151      -1856.977          47.000  
G18  21929773.947   115241747.4161       -886.622          43.000    21929772.780    89798755.167        -690.931          40.000  
G24  21258945.700   111716511.2811       1205.835          47.000    21258945.832    87051828.9201        939.526          48.000  
E33  25634496.374   134710187.796       -3691.219          45.000                                                                  
C32  24729439.756   128772685.4131        863.329          35.000                                                                  
E 7  27400565.841   143990943.309       -3203.756          42.000                                                                  
E20  24469938.540   128590405.243       -1068.441          34.000                                                                  
G23  23415561.625   123049606.254        1711.541          41.000    23415561.705    95882810.2151       1333.883          37.000  
J 1  39169921.376   205839321.5981      -1203.186          46.000    39169919.624   160394272.594        -937.311          45.000  
> 2021 10 15  4 43 56.0010000  0 22                     
G28  23974214.810   125985348.286        -650.857          36.000                                                                  
G13  21486713.199   112913438.174       -3227.854          48.000                                                                  
G14  24322235.676   127814210.619       -1332.435          45.000    24322232.192    99595468.470       -1038.274          39.000  
G15  20540409.869   107940581.008       -1449.623          50.000    20540405.561    84109526.365       -1129.590          43.000  
J 7  37553778.007   197346434.360       -1384.493          40.000    37553776.161   153776440.572       -1078.879          46.000  
C 3  38087583.515   198332042.510       -1420.647          43.000    38087576.856   153362888.164       -1098.290          49.000  
C 8  36525410.105   190197394.565       -1806.642          46.000    36525402.706   147072660.455       -1396.908          52.000  
C13  36467589.481   189896307.429       -1466.183          50.000    36467587.036   146839859.800       -1133.733          47.000  
C16  37787007.587   196766863.079       -1215.426          45.000    37787007.179   152152618.214        -939.689          48.000  
C24  25669558.294   133668128.138       -3814.969          43.000                                                                  
C 6  37805833.985   196864896.640       -1088.282          36.000    37805824.493   152228389.969        -841.535          40.000  
R10  20890378.305   111357469.840       -2604.906          48.000                                                                  
R 1  20633448.138   110297601.690         -53.665          39.000    20633450.496    85787028.8482        -41.712          36.000  
R 8  20924027.090   112047212.812       -2388.705          49.000    20924025.729    87147826.753       -1857.795          47.000  
G18  21929942.564   115242634.973        -888.433          43.000    21929941.784    89799446.762        -692.028          40.000  
G24  21258716.501   111715306.182        1204.382          47.000    21258716.580    87050889.879         938.635          48.000  
E33  25635198.956   134713879.665       -3692.334          45.000                                                                  
C32  24729273.950   128771822.778         862.220          34.000                                                                  
E 7  27401175.580   143994147.512       -3204.597          42.000                                                                  
E20  24470141.676   128591474.408       -1069.885          34.000                                                                  
G23  23415235.990   123047895.494        1710.224          41.000    23415236.218    95881477.170        1332.663          37.000  
J 1  39170150.588   205840525.118       -1203.906          46.000    39170148.631   160395210.409        -938.153          45.000  
> 2021 10 15  4 43 57.0010000  0 22                     
G28  23974338.850   125985999.735        -652.015          36.000                                                                  
G13  21487327.543   112916666.321       -3228.635          48.000                                                                  
G14  24322489.292   127815543.491       -1333.621          45.000    24322485.916    99596507.076       -1039.422          39.000  
G15  20540685.792   107942030.935       -1450.511          50.000    20540681.482    84110656.176       -1130.213          43.000  
J 7  37554041.488   197347819.176       -1385.128          40.000    37554039.547   153777519.655       -1079.323          46.000  
C 3  38087856.486   198333463.243       -1420.985          43.000    38087849.750   153363986.775       -1098.851          48.000  
C 8  36525757.060   190199201.390       -1807.323          46.000    36525749.652   147074057.612       -1397.554          52.000  
C13  36467871.191   189897773.849       -1466.975          50.000    36467868.627   146840993.722       -1134.350          47.000  
C16  37787240.929   196768078.599       -1215.712          45.000    37787240.685   152153558.131        -940.233          48.000  
C24  25670290.811   133671943.554       -3815.960          42.000                                                                  
C 6  37806043.169   196865985.110       -1088.823          36.000    37806033.485   152229231.648        -842.094          40.000  
R10  20890867.042   111360075.283       -2606.301          48.000                                                                  
R 1  20633458.293   110297655.848         -54.842          38.000    20633460.174    85787070.9462        -42.385          37.000  
R 8  20924473.124   112049601.918       -2389.552          49.000    20924471.852    87149684.951       -1858.583          47.000  
G18  21930111.562   115243523.862        -889.578          43.000    21930111.004    89800139.421        -693.460          41.000  
G24  21258487.384   111714102.260        1203.375          47.000    21258487.556    87049951.760         937.726          48.000  
E33  25635901.595   134717572.527       -3693.370          45.000                                                                  
C32  24729108.284   128770960.820         861.505          34.000                                                                  
E 7  27401785.395   143997352.407       -3205.172          42.000                                                                  
E20  24470345.127   128592544.319       -1069.761          34.000                                                                  
G23  23414910.512   123046185.501        1709.611          41.000    23414910.826    95880144.703        1332.234          37.000  
J 1  39170379.740   205841729.242       -1204.382          46.000    39170377.735   160396148.690        -938.550          45.000  
> 2021 10 15  4 43 58.0010000  0 22                     
G28  23974463.009   125986652.331        -653.593          36.000                                                                  
G13  21487942.111   112919895.321       -3229.720          48.000                                                                  
G14  24322743.181   127816877.588       -1334.880          45.000    24322740.006    99597546.616       -1040.304          39.000  
G15  20540961.837   107943481.835       -1451.581          50.000    20540957.668    84111786.750       -1131.158          43.000  
J 7  37554305.211   197349204.656       -1385.870          40.000    37554303.111   153778599.248       -1080.011          46.000  
C 3  38088129.378   198334884.653       -1422.070          43.000    38088122.743   153365085.890       -1099.511          49.000  
C 8  36526104.223   190201009.100       -1808.479          46.000    36526096.905   147075455.440       -1398.307          52.000  
C13  36468152.955   189899241.093       -1467.929          50.000    36468150.443   146842128.295       -1135.144          47.000  
C16  37787474.491   196769294.821       -1216.793          45.000    37787474.270   152154498.593        -940.967          48.000  
C24  25671023.582   133675759.967       -3817.356          42.000                                                                  
C 6  37806252.351   196867074.289       -1089.770          36.000    37806242.596   152230073.878        -842.815          40.000  
R10  20891356.030   111362682.285       -2607.987          48.000                                                                  
R 1  20633468.801   110297710.814         -56.121          38.000    20633470.433    85787113.7122        -43.175          37.000  
R 8  20924919.505   112051991.965       -2390.757          49.000    20924918.198    87151543.878       -1859.470          47.000  
G18  21930280.772   115244414.095        -891.220          43.000    21930280.661    89800833.118        -694.557          40.000  
G24  21258258.504   111712899.489        1201.990          47.000    21258258.624    87049014.543         936.572          48.000  
E33  25636604.625   134721266.336       -3694.492          45.000                                                                  
C32  24728942.879   128770099.619         860.135          34.000                                                                  
E 7  27402395.392   144000557.982       -3206.194          42.000                                                                  
E20  24470548.645   128593615.017       -1071.421          34.000                                                                  
G23  23414585.261   123044476.280        1708.648          41.000    23414585.657    95878812.856        1331.186          37.000  
J 1  39170609.028   205842933.944       -1205.194          46.000    39170607.097   160397087.416        -939.197          45.000  
> 2021 10 15  4 43 59.0010000  0 22                     
G28  23974587.508   125987306.140        -654.231          35.000                                                                  
G13  21488556.710   112923125.244       -3230.229          48.000                                                                  
G14  24322997.273   127818213.002       -1335.810          44.000    24322994.183    99598587.190       -1040.374          40.000  
G15  20541238.151   107944933.790       -1452.310          49.000    20541234.074    84112918.143       -1131.722          44.000  
J 7  37554569.035   197350590.897       -1386.371          40.000    37554566.784   153779679.430       -1080.354          46.000  
C 3  38088402.471   198336306.786       -1422.158          43.000    38088395.794   153366185.589       -1099.922          48.000  
C 8  36526451.633   190202817.719       -1808.838          46.000    36526444.212   147076853.983       -1398.721          52.000  
C13  36468434.943   189900709.279       -1468.423          50.000    36468432.398   146843263.585       -1135.485          47.000  
C16  37787708.271   196770511.843       -1217.219          45.000    37787707.961   152155439.667        -941.263          48.000  
C24  25671756.746   133679577.435       -3817.796          42.000                                                                  
C 6  37806461.635   196868164.281       -1090.250          36.000    37806451.880   152230916.703        -842.891          40.000  
R10  20891845.285   111365290.931       -2609.323          48.000                                                                  
R 1  20633479.539   110297766.689         -56.235          38.000    20633480.858    85787157.196         -44.027          37.000  
R 8  20925365.981   112054383.014       -2391.464          49.000    20925364.726    87153403.570       -1859.864          47.000  
G18  21930450.257   115245305.729        -892.024          43.000    21930450.420    89801527.895        -695.193          40.000  
G24  21258029.827   111711697.947        1201.160          46.000    21258029.971    87048078.274         935.980          48.000  
E33  25637307.698   134724961.180       -3695.085          45.000                                                                  
C32  24728777.569   128769239.138         860.286          34.000                                                                  
E 7  27403005.608   144003764.296       -3206.328          43.000                                                                  
E20  24470752.271   128594686.534       -1071.693          34.000                                                                  
G23  23414260.221   123042767.901        1708.170          41.000    23414260.481    95877481.647        1330.840          37.000  
J 1  39170838.445   205844139.305       -1205.634          46.000    39170836.403   160398026.664        -939.368          45.000  
> 2021 10 15  4 44  0.0010000  0 22                     
G28  23974712.105   125987960.946        -655.343          35.000                                                                  
G13  21489171.523   112926355.857       -3231.274          48.000                                                                  
G14  24323251.592   127819549.487       -1337.097          44.000    24323248.591    99599628.616       -1041.696          39.000  
G15  20541514.598   107946386.565       -1453.406          49.000    20541510.537    84114050.173       -1132.562          44.000  
J 7  37554832.891   197351977.621       -1387.332          40.000    37554830.699   153780759.994       -1080.855          46.000  
C 3  38088675.723   198337729.438       -1423.142          43.000    38088668.955   153367285.664       -1100.438          48.000  
C 8  36526799.023   190204627.035       -1809.856          46.000    36526791.655   147078253.062       -1399.431          52.000  
C13  36468716.899   189902178.135       -1469.429          50.000    36468714.498   146844399.404       -1136.365          47.000  
C16  37787942.129   196771729.407       -1218.052          45.000    37787941.737   152156381.161        -941.841          48.000  
C24  25672490.045   133683395.755       -3818.882          42.000                                                                  
C 6  37806671.059   196869254.846       -1091.433          36.000    37806661.244   152231759.992        -843.927          40.000  
R10  20892334.850   111367900.966       -2610.965          48.000                                                                  
R 1  20633490.343   110297823.282         -56.907          37.000    20633491.511    85787201.207         -44.521          37.000  
R 8  20925812.638   112056774.776       -2392.374          49.000    20925811.343    87155263.833       -1860.517          47.000  
G18  21930619.999   115246198.559        -893.742          43.000    21930620.368    89802223.586        -696.343          40.000  
G24  21257801.437   111710497.402        1199.762          46.000    21257801.583    87047142.780         934.991          48.000  
E33  25638010.724   134728656.820       -3696.146          45.000                                                                  
C32  24728612.417   128768379.173         859.392          34.000                                                                  
E 7  27403616.148   144006971.130       -3207.310          43.000                                                                  
E20  24470956.241   128595758.666       -1072.000          34.000                                                                  
G23  23413935.183   123041060.105        1707.457          41.000    23413935.471    95876150.900        1330.674          37.000  
J 1  39171067.925   205845345.077       -1206.287          46.000    39171065.805   160398966.226        -939.880          45.000  
> 2021 10 15  4 44  1.0010000  0 22                     
G28  23974836.941   125988616.820        -656.511          35.000                                                                  
G13  21489786.454   112929587.250       -3231.728          48.000                                                                  
G14  24323506.153   127820887.162       -1338.210          44.000    24323503.191    99600670.954       -1042.618          39.000  
G15  20541791.298   107947840.268       -1454.105          49.000    20541787.257    84115182.924       -1132.915          44.000  
J 7  37555096.844   197353364.967       -1387.497          40.000    37555094.721   153781841.048       -1081.313          46.000  
C 3  38088949.067   198339152.702       -1423.469          43.000    38088942.244   153368386.226       -1100.726          48.000  
C 8  36527146.704   190206437.169       -1810.621          46.000    36527139.391   147079652.765       -1399.858          52.000  
C13  36468999.247   189903647.781       -1470.112          50.000    36468996.663   146845535.816       -1136.660          47.000  
C16  37788176.099   196772947.636       -1218.541          45.000    37788175.732   152157323.178        -942.200          48.000  
C24  25673223.488   133687215.031       -3819.779          43.000                                                                  
C 6  37806880.652   196870346.040       -1091.576          36.000    37806870.753   152232603.772        -843.685          40.000  
R10  20892824.625   111370512.517       -2612.325          48.000                                                                  
R 1  20633501.306   110297880.634         -57.634          36.000    20633502.258    85787245.833         -44.879          37.000  
R 8  20926259.416   112059167.385       -2393.049          49.000    20926258.153    87157124.753       -1861.244          47.000  
G18  21930790.035   115247092.649        -894.567          43.000    21930790.638    89802920.292        -697.035          40.000  
G24  21257573.217   111709297.969        1198.993          46.000    21257573.381    87046208.160         934.167          48.000  
E33  25638714.291   134732353.379       -3696.819          45.000                                                                  
C32  24728447.330   128767519.921         858.597          34.000                                                                  
E 7  27404226.449   144010178.596       -3207.643          43.000                                                                  
E20  24471160.547   128596831.550       -1073.369          34.000                                                                  
G23  23413610.412   123039353.045        1706.704          41.000    23413610.596    95874820.740        1329.574          37.000  
J 1  39171297.468   205846551.392       -1206.512          46.000    39171295.341   160399906.212        -940.210          45.000  
> 2021 10 15  4 44  2.0010000  0 22                     
G28  23974962.069   125989273.723        -657.749          35.000                                                                  
G13  21490401.405   112932819.353       -3232.511          48.000                                                                  
G14  24323760.949   127822225.907       -1339.199          44.000    24323757.898    99601714.159       -1043.721          39.000  
G15  20542068.052   107949294.774       -1454.939          49.000    20542063.943    84116316.309       -1133.799          44.000  
J 7  37555360.931   197354752.824       -1388.297          40.000    37555358.803   153782922.489       -1081.700          46.000  
C 3  38089222.396   198340576.465       -1424.055          43.000    38089215.704   153369487.168       -1101.114          48.000  
C 8  36527494.398   190208247.992       -1811.100          46.000    36527487.107   147081053.018       -1400.494          52.000  
C13  36469281.671   189905118.108       -1470.729          50.000    36469279.085   146846672.768       -1137.220          47.000  
C16  37788410.060   196774166.417       -1219.222          45.000    37788409.765   152158265.622        -942.796          48.000  
C24  25673957.079   133691035.117       -3820.450          43.000                                                                  
C 6  37807090.349   196871437.831       -1092.062          36.000    37807080.312   152233448.003        -844.147          40.000  
R10  20893314.791   111373125.438       -2613.636          48.000                                                                  
R 1  20633512.435   110297938.731         -58.449          36.000    20633513.113    85787291.008         -45.518          38.000  
R 8  20926706.308   112061560.715       -2393.739          48.000    20926705.065    87158986.232       -1861.787          47.000  
G18  21930960.295   115247987.939        -895.946          43.000    21930961.082    89803617.934        -698.569          41.000  
G24  21257345.145   111708099.521        1197.839          46.000    21257345.395    87045274.306         933.337          48.000  
E33  25639417.682   134736050.742       -3697.936          45.000                                                                  
C32  24728282.396   128766661.146         858.123          34.000                                                                  
E 7  27404837.045   144013386.564       -3208.244          43.000                                                                  
E20  24471364.624   128597904.963       -1073.462          34.000                                                                  
G23  23413285.555   123037646.610        1705.787          41.000    23413285.852    95873491.012        1329.241          37.000  
J 1  39171527.050   205847758.130       -1206.921          46.000    39171524.930   160400846.520        -940.375          45.000  
> 2021 10 15  4 44  3.0010000  0 23                     
G28  23975087.353   125989931.825        -658.513          35.000                                                                  
G13  21491016.726   112936052.416       -3233.487          48.000                                                                  
G14  24324015.873   127823566.000       -1340.822          44.000    24324012.976    99602758.384       -1044.814          39.000  
G15  20542345.008   107950750.386       -1456.113          50.000    20542340.903    84117450.548       -1134.503          44.000  
J 7  37555625.263   197356141.454       -1388.977          40.000    37555622.922   153784004.542       -1082.236          46.000  
C 3  38089496.008   198342001.011       -1424.922          43.000    38089489.270   153370588.717       -1101.920          48.000  
C 8  36527842.298   190210059.777       -1812.217          45.000    36527835.019   147082454.010       -1401.369          52.000  
C13  36469564.119   189906589.391       -1471.731          50.000    36469561.641   146847810.463       -1138.127          47.000  
C16  37788644.338   196775386.019       -1219.950          45.000    37788643.916   152159208.697        -943.492          48.000  
C24  25674690.863   133694856.345       -3821.756          43.000                                                                  
C 6  37807300.173   196872530.423       -1092.934          36.000    37807290.149   152234292.881        -845.115          40.000  
R10  20893805.290   111375740.040       -2615.382          48.000                                                                  
R 1  20633523.800   110297997.794         -59.301          35.000    20633524.273    85787336.974         -46.471          38.000  
R 8  20927153.534   112063955.072       -2394.918          48.000    20927152.184    87160848.519       -1862.747          47.000  
G18  21931130.839   115248884.672        -897.576          43.000    21931131.922    89804316.665        -699.241          41.000  
G24  21257117.329   111706902.355        1196.582          46.000    21257117.475    87044341.449         932.318          48.000  
E33  25640121.598   134739749.165       -3699.129          45.000                                                                  
C32  24728117.564   128765803.203         857.258          33.000                                                                  
E 7  27405447.700   144016595.344       -3209.105          43.000                                                                  
E20  24471568.828   128598979.313       -1074.856          34.000                                                                  
G23  23412960.985   123035941.006        1705.423          41.000    23412961.444    95872162.019        1328.426          37.000  
J 1  39171756.859   205848965.561       -1207.776          46.000    39171754.751   160401787.384        -941.223          45.000  
J 3                                                                  37749223.812                3      -1434.844          25.000  
> 2021 10 15  4 44  4.0010000  0 23                     
G28  23975212.915   125990591.316        -660.294          35.000                                                                  
G13  21491632.217   112939286.518       -3234.682          48.000                                                                  
G14  24324271.082   127824907.511       -1342.211          44.000    24324268.293    99603803.718       -1045.710          39.000  
G15  20542622.191   107952207.156       -1457.351          50.000    20542618.200    84118585.697       -1135.603          44.000  
J 7  37555889.582   197357530.936       -1389.877          40.000    37555887.329   153785087.266       -1083.074          46.000  
C 3  38089769.739   198343426.389       -1425.657          43.000    38089763.044   153371690.921       -1102.594          48.000  
C 8  36528190.500   190211872.607       -1813.434          46.000    36528183.187   147083855.801       -1402.233          52.000  
C13  36469846.830   189908061.696       -1472.793          50.000    36469844.359   146848948.939       -1138.949          47.000  
C16  37788878.657   196776606.527       -1221.031          45.000    37788878.326   152160152.468        -944.149          48.000  
C24  25675424.939   133698678.751       -3822.990          43.000                                                                  
C 6  37807510.268   196873623.925       -1093.789          35.000    37807500.081   152235138.453        -845.938          40.000  
R10  20894296.134   111378356.376       -2617.269          48.000                                                                  
R 1  20633535.227   110298057.923         -60.342          34.000    20633535.596    85787383.721         -47.028          38.000  
R 8  20927600.829   112066350.570       -2396.027          48.000    20927599.536    87162711.677       -1863.501          47.000  
G18  21931301.624   115249782.923        -899.078          43.000    21931302.950    89805016.600        -700.402          41.000  
G24  21256889.817   111705706.514        1195.117          46.000    21256889.810    87043409.627         931.213          48.000  
E33  25640825.720   134743448.736       -3700.207          45.000                                                                  
C32  24727952.932   128764946.146         856.279          33.000                                                                  
E 7  27406058.366   144019804.972       -3209.875          43.000                                                                  
E20  24471773.214   128600054.583       -1075.400          33.000                                                                  
G23  23412636.638   123034236.374        1704.247          41.000    23412637.043    95870833.708        1327.815          37.000  
J 1  39171986.710   205850173.758       -1208.575          46.000    39171984.721   160402728.834        -941.742          45.000  
J 3                                                                  37749575.573                3      -1438.590          25.000  
> 2021 10 15  4 44  5.0010000  0 23                     
G28  23975338.708   125991252.092        -661.471          36.000                                                                  
G13  21492247.757   112942521.626       -3235.644          48.000                                                                  
G14  24324526.656   127826250.417       -1343.591          44.000    24324523.842    99604850.143       -1047.062          39.000  
G15  20542899.630   107953665.063       -1458.522          50.000    20542895.787    84119721.734       -1136.563          44.000  
J 7  37556154.064   197358921.263       -1390.884          40.000    37556151.909   153786170.622       -1083.602          46.000  
C 3  38090043.595   198344852.601       -1426.686          43.000    38090036.904   153372793.745       -1103.144          49.000  
C 8  36528538.794   190213686.431       -1814.421          46.000    36528531.505   147085258.362       -1402.916          52.000  
C13  36470129.799   189909534.988       -1473.660          50.000    36470127.330   146850088.188       -1139.619          47.000  
C16  37789113.192   196777827.883       -1221.740          45.000    37789112.825   152161096.902        -944.796          48.000  
C24  25676159.308   133702502.320       -3824.273          43.000                                                                  
C 6  37807720.341   196874718.290       -1094.497          35.000    37807710.216   152235984.692        -846.698          40.000  
R10  20894787.264   111380974.433       -2618.816          48.000                                                                  
R 1  20633546.983   110298119.094         -61.938          34.000    20633547.072    85787431.317         -48.138          38.000  
R 8  20928048.372   112068747.191       -2397.304          48.000    20928047.024    87164575.705       -1864.368          47.000  
G18  21931472.657   115250682.673        -900.581          43.000    21931474.328    89805717.686        -701.375          40.000  
G24  21256662.535   111704511.981        1193.860          46.000    21256662.591    87042478.819         930.371          48.000  
E33  25641529.917   134747149.414       -3701.397          45.000                                                                  
C32  24727788.603   128764089.893         855.497          33.000                                                                  
E 7  27406669.211   144023015.451       -3211.072          43.000                                                                  
E20  24471977.964   128601130.803       -1076.817          33.000                                                                  
G23  23412312.430   123032532.662        1703.253          41.000    23412312.848    95869506.149        1327.137          37.000  
J 1  39172216.868   205851382.694       -1209.247          46.000    39172214.733   160403670.860        -942.126          45.000  
J 3                                                                  37749926.496                3      -1437.307          25.000  
> 2021 10 15  4 44  6.0010000  0 23                     
G28  23975464.838   125991914.078        -662.624          35.000                                                                  
G13  21492863.476   112945757.637       -3236.691          48.000                                                                  
G14  24324782.550   127827594.618       -1345.173          44.000    24324779.666    99605897.556       -1048.040          39.000  
G15  20543177.290   107955124.010       -1459.681          50.000    20543173.396    84120858.570       -1137.389          44.000  
J 7  37556418.731   197360312.318       -1391.811          40.000    37556416.613   153787254.554       -1084.307          46.000  
C 3  38090317.631   198346279.531       -1427.665          43.000    38090310.927   153373897.148       -1103.892          49.000  
C 8  36528887.330   190215501.167       -1815.442          46.000    36528879.979   147086661.636       -1403.810          52.000  
C13  36470412.875   189911009.189       -1474.777          50.000    36470410.470   146851228.134       -1140.418          47.000  
C16  37789347.845   196779050.019       -1222.788          45.000    37789347.463   152162041.937        -945.561          47.000  
C24  25676893.707   133706326.937       -3825.465          43.000                                                                  
C 6  37807930.734   196875813.484       -1095.892          35.000    37807920.458   152236831.525        -847.292          40.000  
R10  20895278.593   111383594.089       -2620.670          48.000                                                                  
R 1  20633558.944   110298181.156         -62.739          34.000    20633558.745    85787479.603         -48.822          38.000  
R 8  20928496.048   112071144.787       -2398.331          48.000    20928494.800    87166440.517       -1865.371          47.000  
G18  21931643.989   115251583.813        -902.009          43.000    21931645.975    89806419.881        -702.795          40.000  
G24  21256435.459   111703318.670        1192.444          46.000    21256435.590    87041548.973         929.163          48.000  
E33  25642234.405   134750851.120       -3702.516          45.000                                                                  
C32  24727624.378   128763234.412         854.620          34.000                                                                  
E 7  27407279.833   144026226.653       -3211.836          42.000                                                                  
E20  24472182.864   128602207.821       -1077.611          33.000                                                                  
G23  23411988.332   123030829.781        1702.334          41.000    23411988.911    95868179.224        1326.211          37.000  
J 1  39172447.077   205852592.283       -1210.114          46.000    39172444.955   160404613.392        -943.018          45.000  
J 3                                                                  37750276.542                3      -1438.399          25.000  
> 2021 10 15  4 44  7.0010000  0 23                     
G28  23975591.147   125992577.427        -664.329          35.000                                                                  
G13  21493479.557   112948994.682       -3237.654          48.000                                                                  
G14  24325038.619   127828940.214       -1345.974          44.000    24325035.828    99606946.110       -1049.115          39.000  
G15  20543455.104   107956584.121       -1460.609          50.000    20543451.316    84121996.327       -1138.260          44.000  
J 7  37556683.650   197361704.205       -1392.381          40.000    37556681.536   153788339.148       -1084.879          46.000  
C 3  38090591.711   198347707.297       -1428.121          43.000    38090585.092   153375001.184       -1104.297          49.000  
C 8  36529236.054   190217316.959       -1816.365          46.000    36529228.632   147088065.720       -1404.499          52.000  
C13  36470696.187   189912484.425       -1475.660          50.000    36470693.692   146852368.882       -1141.186          47.000  
C16  37789582.768   196780273.055       -1223.625          45.000    37789582.348   152162987.660        -946.104          47.000  
C24  25677628.466   133710152.727       -3826.431          43.000                                                                  
C 6  37808141.275   196876909.526       -1096.420          35.000    37808130.935   152237679.082        -848.054          40.000  
R10  20895770.241   111386215.493       -2622.310          48.000                                                                  
R 1  20633570.983   110298244.276         -63.654          33.000    20633570.564    85787528.696         -49.401          38.000  
R 8  20928943.988   112073543.500       -2399.281          48.000    20928942.711    87168306.174       -1865.930          47.000  
G18  21931815.606   115252486.477        -903.462          44.000    21931817.931    89807123.255        -703.966          40.000  
G24  21256208.607   111702126.701        1191.351          46.000    21256208.704    87040620.163         928.265          48.000  
E33  25642939.133   134754553.967       -3703.635          45.000    25642939.343   103253490.232       -2837.520          48.000  
C32  24727460.252   128762379.792         854.126          33.000                                                                  
E 7  27407891.308   144029438.712       -3212.655          43.000    27407894.072   110360231.953       -2461.490          44.000  
E20  24472387.757   128603285.779       -1077.971          33.000                                                                  
G23  23411664.396   123029127.836        1701.411          40.000    23411664.995    95866853.037        1325.790          37.000  
J 1  39172677.470   205853802.627       -1210.785          46.000    39172675.312   160405556.519        -943.439          45.000  
J 3                                                                  37750627.831                3      -1438.222          26.000  
> 2021 10 15  4 44  8.0010000  0 23                     
G28  23975717.678   125993242.139        -665.333          34.000                                                                  
G13  21494095.838   112952232.853       -3238.695          48.000                                                                  
G14  24325294.963   127830287.355       -1347.929          44.000    24325292.147    99607995.803       -1050.398          39.000  
G15  20543733.224   107958045.480       -1461.885          50.000    20543729.404    84123135.038       -1139.206          44.000  
J 7  37556948.762   197363097.039       -1393.211          40.000    37556946.633   153789424.480       -1085.610          46.000  
C 3  38090866.066   198349136.005       -1429.132          43.000    38090859.456   153376105.949       -1105.080          49.000  
C 8  36529584.920   190219133.876       -1817.520          46.000    36529577.551   147089470.673       -1405.331          52.000  
C13  36470979.675   189913960.775       -1476.869          50.000    36470977.217   146853510.491       -1142.049          47.000  
C16  37789817.836   196781497.065       -1224.326          45.000    37789817.408   152163934.138        -946.749          47.000  
C24  25678363.508   133713979.796       -3827.640          43.000                                                                  
C 6  37808352.000   196878006.587       -1097.265          35.000    37808341.656   152238527.394        -848.847          40.000  
R10  20896262.181   111388838.708       -2624.049          48.000                                                                  
R 1  20633583.420   110298308.505         -64.996          33.000    20633582.556    85787578.655         -50.227          38.000  
R 8  20929392.140   112075943.406       -2400.366          48.000    20929390.999    87170172.773       -1866.993          47.000  
G18  21931987.595   115253390.753        -905.063          44.000    21931990.197    89807827.876        -705.121          40.000  
G24  21255982.055   111700936.160        1189.941          47.000    21255982.190    87039692.460         927.258          48.000  
E33  25643643.981   134758258.043       -3704.709          45.000    25643644.334   103256328.424       -2838.628          48.000  
C32  24727296.237   128761526.176         853.077          33.000                                                                  
E 7  27408502.849   144032651.711       -3213.406          43.000    27408505.739   110362693.871       -2462.385          44.000  
E20  24472593.237   128604364.850       -1079.921          33.000                                                                  
G23  23411340.663   123027426.939        1700.568          40.000    23411341.385    95865527.644        1324.927          37.000  
J 1  39172907.983   205855013.820       -1211.530          46.000    39172905.782   160406500.306        -944.177          45.000  
J 3                                                                  37750979.182                       -1438.889          26.000  
> 2021 10 15  4 44  9.0010000  0 23                     
G28  23975844.385   125993908.275        -666.939          34.000                                                                  
G13  21494712.254   112955472.114       -3239.719          48.000                                                                  
G14  24325551.560   127831635.939       -1349.233          44.000    24325548.807    99609046.652       -1051.396          39.000  
G15  20544011.613   107959508.058       -1463.181          50.000    20544007.783    84124274.714       -1140.183          44.000  
J 7  37557213.940   197364490.788       -1394.332          40.000    37557211.900   153790510.519       -1086.459          46.000  
C 3  38091140.732   198350565.626       -1430.136          43.000    38091134.030   153377211.416       -1105.758          49.000  
C 8  36529934.056   190220951.891       -1818.610          46.000    36529926.666   147090876.478       -1406.246          52.000  
C13  36471263.371   189915438.192       -1477.953          50.000    36471260.935   146854652.921       -1142.865          47.000  
C16  37790053.192   196782722.018       -1225.419          45.000    37790052.637   152164881.366        -947.563          47.000  
C24  25679098.745   133717808.081       -3828.901          43.000                                                                  
C 6  37808562.829   196879104.646       -1098.844          34.000    37808552.464   152239376.433        -849.349          40.000  
R10  20896754.631   111391463.712       -2625.980          48.000                                                                  
R 1  20633596.047   110298373.815         -65.965          33.000    20633594.734    85787629.468         -51.137          38.000  
R 8  20929840.516   112078344.476       -2401.644          48.000    20929839.339    87172040.266       -1867.823          47.000  
G18  21932159.875   115254296.595        -906.547          44.000    21932162.660    89808533.718        -706.053          40.000  
G24  21255755.780   111699747.000        1188.556          47.000    21255755.973    87038765.840         926.270          48.000  
E33  25644349.040   134761963.305       -3705.763          45.000    25644349.533   103259167.532       -2839.517          48.000  
C32  24727132.421   128760673.462         851.974          33.000                                                                  
E 7  27409114.428   144035865.647       -3214.564          43.000    27409116.796   110365156.469       -2462.846          44.000  
E20  24472798.574   128605444.801       -1080.121          33.000                                                                  
G23  23411017.101   123025727.052        1699.272          40.000    23411017.870    95864203.073        1324.257          36.000  
J 1  39173138.606   205856225.839       -1212.384          46.000    39173136.385   160407444.732        -944.727          45.000  
J 3                                                                  37751331.721                       -1438.861          26.000  
> 2021 10 15  4 44 10.0010000  0 23                     
G28  23975971.312   125994575.686        -668.266          34.000                                                                  
G13  21495328.887   112958712.353       -3240.720          48.000                                                                  
G14  24325808.316   127832985.897       -1350.895          44.000    24325805.718    99610098.564       -1052.638          39.000  
G15  20544290.078   107960971.747       -1464.312          49.000    20544286.300    84125415.250       -1141.188          44.000  
J 7  37557479.349   197365885.323       -1394.946          40.000    37557477.261   153791597.176       -1087.132          46.000  
C 3  38091415.482   198351996.013       -1430.911          43.000    38091408.649   153378317.491       -1106.444          49.000  
C 8  36530283.494   190222770.884       -1819.552          46.000    36530276.020   147092283.040       -1406.999          52.000  
C13  36471547.228   189916916.586       -1479.018          50.000    36471544.840   146855796.101       -1143.606          47.000  
C16  37790288.499   196783947.816       -1226.241          45.000    37790288.027   152165829.234        -948.231          47.000  
C24  25679834.127   133721637.507       -3830.016          43.000                                                                  
C 6  37808773.815   196880203.468       -1098.989          34.000    37808763.485   152240226.137        -850.108          40.000  
R10  20897247.315   111394090.390       -2627.566          48.000                                                                  
R 1  20633608.725   110298440.097         -66.418          33.000    20633607.284    85787681.037         -51.750          39.000  
R 8  20930289.107   112080746.591       -2402.707          48.000    20930287.995    87173908.586       -1868.771          47.000  
G18  21932332.331   115255203.910        -908.090          44.000    21932335.467    89809240.727        -707.469          40.000  
G24  21255529.756   111698559.137        1187.097          46.000    21255529.789    87037840.229         925.134          48.000  
E33  25645054.340   134765669.681       -3706.995          45.000    25645054.983   103262007.476       -2840.417          48.000  
C32  24726968.899   128759821.563         851.647          33.000                                                                  
E 7  27409726.133   144039080.366       -3215.145          43.000    27409728.763   110367619.705       -2463.505          44.000  
E20  24473004.227   128606525.730       -1081.330          33.000                                                                  
G23  23410693.848   123024028.062        1698.290          40.000    23410694.534    95862879.174        1323.554          36.000  
J 1  39173369.346   205857438.565       -1213.177          46.000    39173367.238   160408389.716        -945.276          45.000  
J 3                                                                  37751683.079                       -1440.604          26.000  
> 2021 10 15  4 44 11.0010000  0 23                     
G28  23976098.612   125995244.200        -668.822          34.000                                                                  
G13  21495945.608   112961953.424       -3241.621          48.000                                                                  
G14  24326065.442   127834337.054       -1351.826          44.000    24326062.842    99611151.425       -1053.387          39.000  
G15  20544568.733   107962436.389       -1465.113          50.000    20544565.080    84126556.522       -1141.633          44.000  
J 7  37557744.897   197367280.510       -1395.670          40.000    37557742.846   153792684.325       -1087.410          46.000  
C 3  38091690.296   198353427.057       -1431.394          43.000    38091683.557   153379424.066       -1106.814          49.000  
C 8  36530633.018   190224590.704       -1820.036          46.000    36530625.458   147093690.248       -1407.664          52.000  
C13  36471831.329   189918395.791       -1479.599          50.000    36471828.912   146856939.926       -1144.193          47.000  
C16  37790523.961   196785174.306       -1226.788          45.000    37790523.578   152166777.633        -948.665          47.000  
C24  25680569.828   133725467.908       -3830.920          42.000                                                                  
C 6  37808984.944   196881303.029       -1099.732          34.000    37808974.501   152241076.388        -850.803          40.000  
R10  20897740.320   111396718.585       -2628.968          48.000                                                                  
R 1  20633621.457   110298507.179         -66.968          32.000    20633619.788    85787733.267         -52.633          39.000  
R 8  20930737.786   112083149.590       -2403.499          48.000    20930736.729    87175777.582       -1869.411          47.000  
G18  21932505.118   115256112.529        -909.255          44.000    21932508.502    89809948.770        -708.992          40.000  
G24  21255303.853   111697372.384        1186.243          46.000    21255303.846    87036915.497         924.335          48.000  
E33  25645759.725   134769376.979       -3707.872          45.000    25645760.236   103264848.131       -2841.082          48.000  
C32  24726805.466   128758970.357         850.103          33.000                                                                  
E 7  27410337.997   144042295.733       -3215.654          43.000    27410340.781   110370083.440       -2464.179          44.000  
E20  24473210.293   128607607.334       -1081.810          33.000                                                                  
G23  23410370.630   123022329.791        1697.849          40.000    23410371.405    95861555.842        1323.255          36.000  
J 1  39173600.173   205858651.844       -1213.556          46.000    39173598.086   160409335.128        -945.642          45.000  
J 3                                                                  37752034.995                       -1441.244          26.000  
> 2021 10 15  4 44 12.0010000  0 24                     
G28  23976226.126   125995913.927        -670.599          34.000                                                                  
G13  21496562.603   112965195.380       -3242.390          48.000                                                                  
G14  24326322.899   127835689.497       -1353.118          44.000    24326320.298    99612205.264       -1054.277          39.000  
G15  20544847.773   107963902.042       -1466.201          50.000    20544843.973    84127698.590       -1142.444          44.000  
J 7  37558010.512   197368676.391       -1396.053          40.000    37558008.607   153793772.034       -1088.002          46.000  
C 3  38091965.355   198354858.804       -1432.054          43.000    38091958.503   153380531.182       -1107.393          49.000  
C 8  36530982.699   190226411.419       -1821.076          46.000    36530975.117   147095098.128       -1408.197          52.000  
C13  36472115.681   189919875.878       -1480.676          50.000    36472113.142   146858084.418       -1144.915          47.000  
C16  37790759.710   196786401.547       -1227.607          45.000    37790759.196   152167726.613        -949.186          47.000  
C24  25681305.601   133729299.339       -3831.866          43.000                                                                  
C 6  37809196.397   196882403.327       -1100.577          34.000    37809185.744   152241927.210        -851.189          40.000  
R10  20898233.604   111399348.377       -2630.635          47.000                                                                  
R 1  20633634.449   110298575.214         -68.224          32.000    20633632.427    85787786.175         -53.329          39.000  
R 8  20931186.745   112085553.540       -2404.444          48.000    20931185.719    87177647.319       -1869.988          47.000  
R11  20757953.797                3       1540.732          25.000                                                                  
G18  21932678.182   115257022.540        -910.724          44.000    21932681.853    89810657.843        -709.553          39.000  
G24  21255078.323   111696186.832        1184.888          47.000    21255078.332    87035991.688         923.230          48.000  
E33  25646465.336   134773085.281       -3709.015          45.000    25646465.998   103267689.554       -2841.911          49.000  
C32  24726642.121   128758119.874         849.668          33.000                                                                  
E 7  27410950.146   144045511.837       -3216.448          43.000    27410952.576   110372547.710       -2464.574          44.000  
E20  24473416.295   128608689.804       -1082.926          33.000                                                                  
G23  23410047.556   123020632.336        1697.083          40.000    23410048.247    95860233.154        1322.470          36.000  
J 1  39173831.104   205859865.745       -1214.313          46.000    39173829.074   160410281.025        -946.136          45.000  
J 3                                                                  37752387.229                       -1441.625          26.000  
> 2021 10 15  4 44 13.0010000  0 24                     
G28  23976353.805   125996584.880        -671.851          34.000                                                                  
G13  21497179.697   112968438.283       -3243.652          48.000                                                                  
G14  24326580.577   127837043.261       -1354.499          45.000    24326577.896    99613260.152       -1055.760          39.000  
G15  20545126.917   107965368.758       -1467.297          50.000    20545123.092    84128841.490       -1143.326          44.000  
J 7  37558276.364   197370073.047       -1396.993          40.000    37558274.350   153794860.330       -1088.601          46.000  
C 3  38092240.524   198356291.310       -1433.193          43.000    38092233.565   153381638.883       -1108.231          49.000  
C 8  36531332.672   190228233.084       -1822.268          46.000    36531324.886   147096506.753       -1409.060          52.000  
C13  36472400.145   189921356.915       -1481.820          50.000    36472397.533   146859229.641       -1145.643          47.000  
C16  37790995.505   196787629.579       -1228.457          45.000    37790995.058   152168676.212        -950.056          47.000  
C24  25682041.617   133733131.872       -3833.338          43.000                                                                  
C 6  37809407.984   196883504.462       -1102.116          34.000    37809397.145   152242778.655        -851.887          40.000  
R10  20898727.231   111401979.825       -2632.445          47.000                                                                  
R 1  20633647.475   110298644.146         -69.391          32.000    20633645.280    85787839.796         -53.872          39.000  
R 8  20931635.942   112087958.530       -2405.643          48.000    20931634.813    87179517.871       -1871.066          47.000  
R11  20757665.441                3       1537.983          25.000                                                                  
G18  21932851.578   115257933.955        -912.181          44.000    21932855.440    89811368.043        -710.730          40.000  
G24  21254852.978   111695002.526        1183.582          47.000    21254852.934    87035068.854         922.266          48.000  
E33  25647171.243   134776794.618       -3709.960          45.000    25647171.882   103270531.769       -2842.573          49.000  
C32  24726478.858   128757270.138         849.429          33.000                                                                  
E 7  27411562.468   144048728.707       -3217.451          43.000    27411564.884   110375012.579       -2465.245          44.000  
E20  24473622.405   128609773.096       -1083.873          33.000                                                                  
G23  23409724.785   123018935.733        1695.988          40.000    23409725.242    95858911.127        1321.677          36.000  
J 1  39174062.291   205861080.311       -1214.880          46.000    39174060.140   160411227.442        -946.753          45.000  
J 3                                                                  37752740.634                       -1442.580          26.000  
> 2021 10 15  4 44 14.0010000  0 24                     
G28  23976481.706   125997256.863        -672.532          34.000                                                                  
G13  21497796.835   112971681.910       -3244.063          48.000                                                                  
G14  24326838.407   127838398.126       -1355.186          44.000    24326835.797    99614315.894       -1055.867          39.000  
G15  20545406.258   107966836.341       -1467.976          50.000    20545402.357    84129985.055       -1143.772          44.000  
J 7  37558542.216   197371470.229       -1397.226          40.000    37558540.123   153795949.049       -1088.808          46.000  
C 3  38092515.755   198357724.349       -1433.313          43.000    38092508.775   153382746.996       -1108.251          49.000  
C 8  36531682.682   190230055.483       -1822.618          46.000    36531674.842   147097915.953       -1409.434          52.000  
C13  36472684.743   189922838.657       -1482.012          50.000    36472682.173   146860375.434       -1146.099          47.000  
C16  37791231.433   196788858.217       -1228.847          44.000    37791231.055   152169626.269        -950.284          47.000  
C24  25682777.873   133736965.262       -3833.663          42.000                                                                  
C 6  37809619.554   196884606.181       -1102.062          33.000    37809608.672   152243630.578        -852.294          40.000  
R10  20899221.201   111404612.713       -2633.601          47.000                                                                  
R 1  20633660.691   110298713.813         -69.944          33.000    20633658.265    85787894.005         -54.306          39.000  
R 8  20932085.179   112090364.340       -2406.085          48.000    20932084.037    87181389.051       -1871.417          46.000  
R11  20757377.175                3       1538.060          26.000                                                                  
G18  21933025.132   115258846.591        -913.041          44.000    21933029.276    89812079.203        -711.737          39.000  
G24  21254627.751   111693819.260        1182.861          47.000    21254627.740    87034146.830         921.680          48.000  
E33  25647877.427   134780504.805       -3710.659          45.000    25647877.907   103273374.639       -2843.160          49.000  
C32  24726315.765   128756421.049         848.762          34.000                                                                  
E 7  27412174.619   144051946.124       -3217.680          43.000    27412177.086   110377477.868       -2465.364          44.000  
E20  24473828.623   128610857.040       -1083.816          33.000                                                                  
G23  23409402.109   123017239.784        1695.736          40.000    23409402.499    95857589.617        1321.137          36.000  
J 1  39174293.409   205862295.345       -1215.033          46.000    39174291.392   160412174.223        -946.838          45.000  
J 3                                                                  37753093.011                       -1443.099          26.000  
> 2021 10 15  4 44 15.0010000  0 24                     
G28  23976609.741   125997929.893        -673.550          34.000                                                                  
G13  21498414.176   112974926.281       -3244.450          48.000                                                                  
G14  24327096.419   127839754.136       -1356.255          44.000    24327093.821    99615372.532       -1057.262          39.000  
G15  20545685.717   107968304.786       -1468.620          50.000    20545681.925    84131129.313       -1144.620          45.000  
J 7  37558808.199   197372867.997       -1397.646          40.000    37558806.108   153797038.213       -1089.268          46.000  
C 3  38092790.955   198359157.951       -1433.796          43.000    38092783.972   153383855.556       -1108.659          49.000  
C 8  36532032.731   190231878.622       -1823.262          46.000    36532025.003   147099325.727       -1410.051          52.000  
C13  36472969.439   189924321.132       -1482.558          50.000    36472966.839   146861521.779       -1146.528          47.000  
C16  37791467.447   196790087.461       -1229.304          44.000    37791467.094   152170576.792        -950.449          47.000  
C24  25683514.229   133740799.567       -3834.580          42.000                                                                  
C 6  37809831.234   196885708.481       -1102.181          33.000    37809820.341   152244482.948        -852.339          40.000  
R10  20899715.350   111407247.048       -2634.833          47.000                                                                  
R 1  20633674.011   110298784.264         -70.947          34.000    20633671.490    85787948.784         -54.794          39.000  
R 8  20932534.677   112092770.951       -2406.756          48.000    20932533.451    87183260.863       -1871.905          46.000  
R11  20757090.878                3       1535.455          26.000                                                                  
G18  21933199.067   115259760.487        -914.260          44.000    21933203.252    89812791.310        -712.399          39.000  
G24  21254402.784   111692637.044        1181.964          47.000    21254402.754    87033225.629         920.911          48.000  
E33  25648583.513   134784215.832       -3711.112          45.000    25648584.165   103276218.163       -2843.789          48.000  
C32  24726152.876   128755572.472         849.098          34.000                                                                  
E 7  27412786.942   144055164.118       -3218.152          43.000    27412789.434   110379943.598       -2465.782          44.000  
E20  24474035.138   128611941.674       -1085.020          33.000                                                                  
G23  23409079.625   123015544.494        1695.047          41.000    23409079.904    95856268.593        1320.658          36.000  
J 1  39174524.691   205863510.852       -1215.491          46.000    39174522.610   160413121.375        -947.144          45.000  
J 3                                                                  37753444.895                       -1442.397          26.000  
> 2021 10 15  4 44 16.0010000  0 24                     
G28  23976738.045   125998604.058        -674.474          34.000                                                                  
G13  21499031.723   112978171.506       -3245.613          48.000                                                                  
G14  24327354.736   127841111.376       -1357.773          45.000    24327352.126    99616430.117       -1058.215          39.000  
G15  20545965.325   107969774.212       -1469.886          50.000    20545961.535    84132274.303       -1145.332          45.000  
J 7  37559074.286   197374266.431       -1398.938          40.000    37559072.156   153798127.888       -1089.937          46.000  
C 3  38093066.392   198360592.211       -1434.635          43.000    38093059.419   153384964.613       -1109.446          48.000  
C 8  36532382.939   190233702.630       -1824.515          46.000    36532375.250   147100736.156       -1410.750          52.000  
C13  36473254.106   189925804.420       -1483.724          50.000    36473251.641   146862668.743       -1147.216          47.000  
C16  37791703.656   196791317.401       -1230.255          45.000    37791703.327   152171527.872        -951.410          47.000  
C24  25684250.742   133744634.862       -3835.912          42.000                                                                  
C 6  37810043.065   196886811.534       -1103.206          33.000    37810032.158   152245335.886        -853.132          40.000  
R10  20900209.932   111409882.927       -2636.617          47.000                                                                  
R 1  20633687.247   110298855.535         -71.560          34.000    20633684.746    85788004.247         -55.805          39.000  
R 8  20932984.381   112095178.458       -2408.016          48.000    20932983.012    87185133.367       -1872.902          46.000  
R11  20756803.308                3       1534.494          26.000                                                                  
G18  21933373.061   115260675.691        -915.845          44.000    21933377.473    89813504.440        -713.358          39.000  
G24  21254178.033   111691455.983        1180.493          47.000    21254178.085    87032305.320         919.775          48.000  
E33  25649290.043   134787927.826       -3712.518          45.000    25649290.503   103279062.406       -2844.661          48.000  
C32  24725990.047   128754724.654         847.561          34.000                                                                  
E 7  27413399.391   144058382.782       -3218.966          43.000    27413401.972   110382409.849       -2466.560          44.000  
E20  24474241.637   128613027.019       -1085.388          33.000                                                                  
G23  23408757.106   123013849.956        1694.387          41.000    23408757.334    95854948.181        1320.247          36.000  
J 1  39174756.193   205864726.940       -1216.467          46.000    39174754.000   160414068.964        -947.754          45.000  
J 3                                                                  37753798.985                       -1443.572          26.000  
> 2021 10 15  4 44 17.0010000  0 24                     
G28  23976866.596   125999279.360        -676.125          33.000                                                                  
G13  21499649.397   112981417.526       -3246.573          48.000                                                                  
G14  24327613.350   127842469.807       -1359.223          45.000    24327610.577    99617488.627       -1058.892          39.000  
G15  20546245.320   107971244.571       -1471.064          50.000    20546241.340    84133420.050       -1146.337          45.000  
J 7  37559340.417   197375665.462       -1399.460          40.000    37559338.460   153799218.062       -1090.645          46.000  
C 3  38093341.788   198362027.094       -1435.416          43.000    38093335.018   153386074.159       -1109.967          49.000  
C 8  36532733.365   190235527.452       -1825.494          46.000    36532725.696   147102147.232       -1411.612          52.000  
C13  36473539.198   189927288.521       -1484.743          50.000    36473536.703   146863816.353       -1148.115          47.000  
C16  37791940.160   196792548.022       -1231.050          44.000    37791939.653   152172479.461        -951.922          47.000  
C24  25684987.523   133748471.107       -3836.998          42.000                                                                  
C 6  37810255.023   196887915.252       -1104.116          33.000    37810244.057   152246189.356        -853.778          40.000  
R10  20900704.713   111412520.319       -2638.352          47.000                                                                  
R 1  20633700.822   110298927.622         -72.498          34.000    20633698.143    85788060.333         -56.617          39.000  
R 8  20933434.150   112097586.827       -2409.012          48.000    20933432.713    87187006.550       -1873.635          46.000  
R11  20756516.298                3       1534.379          25.000                                                                  
G18  21933547.299   115261592.189        -917.311          44.000    21933551.907    89814218.596        -714.625          39.000  
G24  21253953.483   111690276.025        1179.187          47.000    21253953.568    87031385.873         918.884          48.000  
E33  25649996.464   134791640.721       -3713.514          45.000    25649997.000   103281907.353       -2845.408          48.000  
C32  24725827.338   128753877.431         847.078          33.000                                                                  
E 7  27414012.027   144061602.067       -3219.678          43.000    27414014.450   110384876.573       -2467.081          44.000  
E20  24474448.090   128614113.124       -1086.400          33.000                                                                  
G23  23408434.841   123012156.154        1693.280          40.000    23408435.052    95853628.354        1319.164          36.000  
J 1  39174987.756   205865943.562       -1217.133          46.000    39174985.582   160415016.987        -948.322          45.000  
J 3                                                                  37754152.550                       -1444.181          26.000  
> 2021 10 15  4 44 18.0010000  0 24                     
G28  23976995.248   125999955.656        -676.690          33.000                                                                  
G13  21500267.263   112984664.286       -3247.227          48.000                                                                  
G14  24327872.071   127843829.332       -1359.956          45.000    24327869.300    99618548.002       -1059.838          39.000  
G15  20546525.248   107972715.781       -1471.715          50.000    20546521.354    84134566.448       -1146.880          45.000  
J 7  37559606.745   197377065.048       -1399.668          40.000    37559604.850   153800308.647       -1090.826          46.000  
C 3  38093617.394   198363462.515       -1435.707          44.000    38093610.679   153387184.115       -1110.192          49.000  
C 8  36533084.003   190237353.008       -1825.874          46.000    36533076.281   147103558.866       -1411.903          52.000  
C13  36473824.350   189928773.349       -1485.148          50.000    36473821.830   146864964.519       -1148.501          47.000  
C16  37792176.648   196793779.237       -1231.440          45.000    37792176.097   152173431.514        -952.217          47.000  
C24  25685724.306   133752308.245       -3837.670          43.000                                                                  
C 6  37810467.088   196889019.579       -1104.437          33.000    37810456.163   152247043.308        -854.051          40.000  
R10  20901199.726   111415159.135       -2639.547          47.000                                                                  
R 1  20633714.461   110299000.467         -73.345          35.000    20633711.754    85788116.984         -57.099          39.000  
R 8  20933884.053   112099995.999       -2409.516          48.000    20933882.561    87188880.352       -1874.116          46.000  
R11  20756228.740                3       1530.630          25.000                                                                  
G18  21933721.879   115262509.907        -918.315          44.000    21933726.607    89814933.717        -715.630          39.000  
G24  21253729.272   111689097.103        1178.394          47.000    21253729.118    87030467.235         918.262          48.000  
E33  25650703.106   134795354.466       -3714.258          45.000    25650703.735   103284752.946       -2845.818          48.000  
C32  24725664.653   128753030.821         846.646          34.000                                                                  
E 7  27414624.805   144064821.923       -3220.088          43.000    27414627.225   110387343.730       -2467.326          44.000  
E20  24474654.968   128615199.870       -1087.594          33.000                                                                  
G23  23408112.545   123010462.994        1692.693          41.000    23408112.815    95852308.980        1319.251          35.000  
J 1  39175219.373   205867160.647       -1217.432          46.000    39175217.160   160415965.371        -948.712          45.000  
J 3                                                                  37754504.576                       -1443.656          26.000  
> 2021 10 15  4 44 19.0010000  0 24                     
G28  23977124.129   126000632.907        -677.704          33.000                                                                  
G13  21500885.276   112987911.682       -3247.816          48.000                                                                  
G14  24328131.104   127845189.918       -1361.086          44.000    24328128.294    99619608.198       -1060.757          39.000  
G15  20546805.408   107974187.760       -1472.215          50.000    20546801.536    84135713.429       -1147.023          45.000  
J 7  37559873.185   197378465.110       -1400.053          40.000    37559871.184   153801399.600       -1091.036          46.000  
C 3  38093893.278   198364898.409       -1436.137          44.000    38093886.465   153388294.439       -1110.402          49.000  
C 8  36533434.567   190239179.233       -1826.543          46.000    36533427.021   147104971.016       -1412.366          52.000  
C13  36474109.581   189930258.826       -1485.810          50.000    36474107.100   146866113.176       -1148.898          47.000  
C16  37792413.182   196795010.958       -1231.870          44.000    37792412.624   152174383.950        -952.564          47.000  
C24  25686461.278   133756146.154       -3838.306          43.000                                                                  
C 6  37810679.359   196890124.443       -1105.482          33.000    37810668.253   152247897.648        -854.917          40.000  
R10  20901695.094   111417799.289       -2640.784          47.000                                                                  
R 1  20633728.185   110299073.966         -73.891          35.000    20633725.444    85788174.152         -57.371          40.000  
R 8  20934334.109   112102405.906       -2410.267          48.000    20934332.602    87190754.718       -1874.512          47.000  
R11  20755939.546                3       1531.820          24.000                                                                  
G18  21933896.715   115263428.749        -919.303          44.000    21933901.597    89815649.686        -716.243          39.000  
G24  21253505.146   111687919.132        1177.637          47.000    21253504.982    87029549.342         917.603          48.000  
E33  25651410.055   134799068.951       -3714.896          45.000    25651410.583   103287599.122       -2846.560          49.000  
C32  24725502.062   128752184.664         846.106          34.000                                                                  
E 7  27415237.574   144068042.251       -3220.700          43.000    27415240.063   110389811.256       -2467.794          44.000  
E20  24474862.035   128616287.116       -1087.289          33.000                                                                  
G23  23407790.547   123008770.398        1692.311          40.000    23407790.653    95850990.069        1319.117          36.000  
J 1  39175451.092   205868378.102       -1217.535          46.000    39175448.837   160416914.033        -948.749          45.000  
J 3                                                                  37754858.960                       -1444.997          26.000  
> 2021 10 15  4 44 20.0010000  0 24                     
G28  23977253.046   126001310.987        -678.602          33.000                                                                  
G13  21501503.316   112991159.603       -3248.407          48.000                                                                  
G14  24328390.167   127846551.386       -1362.041          44.000    24328387.407    99620669.071       -1061.240          40.000  
G15  20547085.683   107975660.394       -1473.161          50.000    20547081.822    84136860.955       -1148.108          45.000  
J 7  37560139.685   197379865.502       -1400.594          40.000    37560137.676   153802490.818       -1091.391          46.000  
C 3  38094169.151   198366334.633       -1436.579          43.000    38094162.312   153389405.024       -1110.949          49.000  
C 8  36533785.378   190241005.971       -1827.056          46.000    36533777.798   147106383.577       -1412.975          52.000  
C13  36474395.111   189931744.813       -1486.483          50.000    36474392.536   146867262.239       -1149.438          47.000  
C16  37792649.876   196796243.067       -1232.473          44.000    37792649.223   152175336.701        -953.052          47.000  
C24  25687198.550   133759984.739       -3839.117          42.000                                                                  
C 6  37810891.743   196891229.664       -1105.264          33.000    37810880.497   152248752.274        -855.129          40.000  
R10  20902190.631   111420440.660       -2642.209          48.000                                                                  
R 1  20633741.954   110299147.973         -74.750          36.000    20633739.257    85788231.736         -58.098          40.000  
R 8  20934784.264   112104816.414       -2410.982          48.000    20934782.787    87192629.563       -1875.235          46.000  
R11  20755649.817                3       1531.122          25.000                                                                  
G18  21934071.656   115264348.609        -920.471          44.000    21934076.699    89816366.462        -717.398          39.000  
G24  21253281.187   111686741.991        1176.636          47.000    21253281.035    87028632.091         916.779          48.000  
E33  25652117.098   134802784.080       -3715.692          45.000    25652117.575   103290445.770       -2847.048          49.000  
C32  24725339.647   128751338.941         845.234          34.000                                                                  
E 7  27415850.512   144071262.910       -3220.967          43.000    27415852.962   110392279.026       -2467.893          44.000  
E20  24475069.120   128617374.884       -1088.151          33.000                                                                  
G23  23407468.522   123007078.235        1691.888          41.000    23407468.537    95849671.521        1317.802          36.000  
J 1  39175682.888   205869595.825       -1218.060          46.000    39175680.657   160417862.909        -949.231          45.000  
J 3                                                                  37755210.855                       -1444.639          27.000  
> 2021 10 15  4 44 21.0010000  0 24                     
G28  23977382.251   126001989.950        -679.101          33.000                                                                  
G13  21502121.413   112994408.147       -3248.871          48.000                                                                  
G14  24328649.394   127847913.869       -1363.077          45.000    24328646.636    99621730.761       -1062.235          40.000  
G15  20547366.075   107977133.778       -1473.720          50.000    20547362.320    84138009.032       -1148.266          45.000  
J 7  37560406.225   197381266.340       -1401.049          40.000    37560404.259   153803582.378       -1091.561          46.000  
C 3  38094445.088   198367771.290       -1436.778          43.000    38094438.245   153390515.932       -1110.995          48.000  
C 8  36534136.336   190242833.365       -1827.686          46.000    36534128.722   147107796.624       -1413.230          52.000  
C13  36474680.563   189933231.431       -1486.838          50.000    36474678.037   146868411.784       -1149.913          47.000  
C16  37792886.722   196797475.652       -1232.816          44.000    37792885.985   152176289.816        -953.197          47.000  
C24  25687935.951   133763824.101       -3839.729          42.000                                                                  
C 6  37811104.017   196892335.399       -1105.805          32.000    37811092.744   152249607.278        -855.235          40.000  
R10  20902686.445   111423083.342       -2643.281          48.000                                                                  
R 1  20633755.838   110299222.609         -74.379          36.000    20633753.155    85788289.785         -58.261          40.000  
R 8  20935234.474   112107227.603       -2411.458          48.000    20935233.042    87194504.932       -1875.599          47.000  
R11  20755359.976                3       1528.361          24.000                                                                  
G18  21934246.814   115265269.571        -921.409          44.000    21934252.015    89817084.096        -718.140          39.000  
G24  21253057.271   111685565.773        1176.013          47.000    21253057.223    87027715.551         916.132          48.000  
E33  25652824.131   134806499.930       -3716.138          45.000    25652824.661   103293292.981       -2847.514          48.000  
C32  24725177.303   128750493.630         844.935          33.000                                                                  
E 7  27416463.407   144074484.035       -3221.245          43.000    27416465.828   110394747.149       -2468.147          44.000  
E20  24475276.254   128618463.120       -1088.269          33.000                                                                  
G23  23407146.580   123005386.599        1691.609          40.000    23407146.584    95848353.372        1317.619          35.000  
J 1  39175914.625   205870813.884       -1217.987          46.000    39175912.411   160418812.047        -949.243          45.000  
J 3                                                                  37755563.465                       -1444.860          26.000  
> 2021 10 15  4 44 22.0010000  0 25                     
G28  23977511.679   126002669.740        -680.424          33.000                                                                  
G13  21502739.593   112997657.135       -3249.379          47.000                                                                  
G14  24328908.872   127849277.168       -1363.583          45.000    24328906.040    99622793.078       -1062.962          40.000  
G15  20547646.554   107978607.729       -1474.292          50.000    20547642.879    84139157.575       -1148.923          45.000  
J 7  37560672.888   197382667.424       -1401.141          40.000    37560670.852   153804674.154       -1091.981          46.000  
C 3  38094720.942   198369208.222       -1437.289          43.000    38094714.151   153391627.059       -1111.373          48.000  
C 8  36534487.335   190244661.203       -1828.177          46.000    36534479.741   147109210.027       -1413.656          51.000  
C13  36474966.111   189934718.458       -1487.426          50.000    36474963.665   146869561.640       -1150.046          47.000  
C16  37793123.537   196798708.543       -1232.861          44.000    37793122.781   152177243.175        -953.585          47.000  
C24  25688673.371   133767664.065       -3840.217          43.000                                                                  
C 6  37811316.382   196893441.426       -1106.151          32.000    37811305.157   152250462.552        -855.611          40.000  
R10  20903182.357   111425727.166       -2644.465          48.000                                                                  
R 1  20633769.770   110299297.727         -75.328          37.000    20633767.139    85788348.213         -58.750          39.000  
R 8  20935684.814   112109639.284       -2411.982          48.000    20935683.365    87196380.685       -1875.922          47.000  
R11  20755072.675                3       1528.192          23.000                                                                  
G18  21934422.074   115266191.474        -922.471          44.000    21934427.502    89817802.452        -718.951          39.000  
G24  21252833.617   111684390.301        1175.085          47.000    21252833.549    87026799.608         915.515          48.000  
E33  25653531.380   134810216.338       -3716.704          45.000    25653531.862   103296140.610       -2847.875          48.000  
C32  24725014.976   128749648.626         844.730          32.000                                                                  
C27  25603640.718   133324875.238       -3756.438          39.000                                                                  
E 7  27417076.510   144077705.424       -3221.645          43.000    27417078.792   110397215.494       -2468.438          44.000  
E20  24475483.378   128619551.743       -1088.632          33.000                                                                  
G23  23406824.688   123003695.352        1691.109          40.000    23406824.674    95847035.473        1317.906          35.000  
J 1  39176146.496   205872032.131       -1218.256          46.000    39176144.319   160419761.335        -949.475          45.000  
J 3                                                                  37755916.038                       -1444.994          26.000  
> 2021 10 15  4 44 23.0010000  0 25                     
G28  23977641.182   126003350.363        -681.714          33.000                                                                  
G13  21503357.877   113000906.689       -3249.966          48.000                                                                  
G14  24329168.535   127850641.448       -1364.824          45.000    24329165.598    99623856.141       -1063.647          40.000  
G15  20547927.146   107980082.397       -1475.222          50.000    20547923.440    84140306.661       -1149.563          45.000  
J 7  37560939.632   197384068.930       -1402.067          40.000    37560937.595   153805766.219       -1092.378          46.000  
C 3  38094996.958   198370645.533       -1437.743          43.000    38094990.132   153392738.478       -1111.715          48.000  
C 8  36534838.525   190246489.603       -1828.781          46.000    36534830.850   147110623.859       -1414.122          51.000  
C13  36475251.773   189936206.073       -1488.031          50.000    36475249.294   146870711.961       -1150.568          47.000  
C16  37793360.416   196799941.893       -1233.671          44.000    37793359.596   152178196.871        -954.149          47.000  
C24  25689410.842   133771504.735       -3841.117          42.000                                                                  
C 6  37811528.856                       -1106.246          33.000    37811517.618   152251318.158        -855.944          40.000  
R10  20903678.560   111428372.261       -2645.931          48.000                                                                  
R 1  20633783.710   110299373.404         -76.193          37.000    20633781.183    85788407.071         -59.050          40.000  
R 8  20936135.247   112112051.594       -2412.689          48.000    20936133.867    87198256.925       -1876.551          47.000  
R11  20754784.579                3       1526.824          24.000                                                                  
G18  21934597.594   115267114.433        -923.633          44.000    21934603.239    89818521.650        -719.888          39.000  
G24  21252610.119   111683215.727        1173.871          47.000    21252610.127    87025884.351         914.758          48.000  
E33  25654238.699   134813933.432       -3717.565          45.000    25654239.250   103298988.783       -2848.649          48.000  
C32  24724852.751   128748803.983         845.132          32.000                                                                  
C27  25604362.228   133328632.463       -3757.591          39.000                                                                  
E 7  27417689.331   144080927.213       -3221.941          43.000    27417691.919   110399684.135       -2468.747          43.000  
E20  24475690.627   128620640.886       -1090.067          33.000                                                                  
G23  23406502.811   123002004.558        1690.601          40.000    23406502.798    95845718.014        1316.940          35.000  
J 1  39176378.393   205873250.684       -1218.817          46.000    39176376.101   160420710.858        -949.805          45.000  
J 3                                                                  37756269.188                3      -1445.156          25.000  
> 2021 10 15  4 44 24.0010000  0 25                     
G28  23977770.986   126004032.139        -682.552          33.000                                                                  
G13  21503976.392   113004157.123       -3250.822          47.000                                                                  
G14  24329428.460   127852006.984       -1366.200          45.000    24329425.494    99624920.175       -1064.286          40.000  
G15  20548207.939   107981558.049       -1476.068          50.000    20548204.304    84141456.508       -1150.078          45.000  
J 7  37561206.403   197385471.110       -1402.413          40.000    37561204.451   153806858.823       -1092.790          46.000  
C 3  38095273.097   198372083.526       -1438.225          43.000    38095266.301   153393850.422       -1112.012          48.000  
C 8  36535189.912   190248318.894       -1829.665          46.000    36535182.123   147112038.384       -1414.828          51.000  
C13  36475537.550   189937694.530       -1488.806          50.000    36475535.178   146871862.930       -1151.251          47.000  
C16  37793597.484   196801175.962       -1234.516          44.000    37793596.678   152179151.132        -954.535          47.000  
C24  25690148.587   133775346.464       -3842.333          43.000                                                                  
C 6  37811741.522   196895655.171       -1107.709          33.000    37811730.262   152252174.343        -856.683          40.000  
R10  20904175.025   111431018.923       -2647.525          47.000                                                                  
R 1  20633797.996   110299449.969         -76.913          38.000    20633795.454    85788466.619         -59.979          40.000  
R 8  20936585.973   112114464.847       -2413.604          48.000    20936584.537    87200133.899       -1877.320          47.000  
R11  20754498.184                3       1525.095          23.000                                                                  
G18  21934773.377   115268038.744        -924.916          44.000    21934779.184    89819241.893        -721.012          38.000  
G24  21252386.763   111682042.306        1172.974          47.000    21252386.898    87024970.000         914.020          48.000  
E33  25654946.210   134817651.498       -3718.626          45.000    25654946.807   103301837.688       -2849.317          49.000  
C32  24724690.595   128747960.150         843.490          31.000                                                                  
C27  25605083.830   133332390.503       -3758.730          38.000                                                                  
E 7  27418302.803   144084149.695       -3222.677          43.000    27418305.101   110402153.309       -2469.369          43.000  
E20  24475898.161   128621730.718       -1089.659          33.000                                                                  
G23  23406181.196   123000314.589        1689.698          40.000    23406181.174    95844401.163        1316.074          36.000  
J 1  39176610.327   205874469.845       -1219.354          46.000    39176608.165   160421660.849        -950.232          45.000  
J 3                                                                  37756623.143                3      -1445.767          25.000  
> 2021 10 15  4 44 25.0010000  0 24                     
G28  23977900.889   126004715.060        -683.509          33.000                                                                  
G13  21504595.046   113007408.394       -3251.729          47.000                                                                  
G14  24329688.652   127853373.741       -1367.561          45.000    24329685.620    99625985.186       -1065.483          40.000  
G15  20548488.943   107983034.677       -1477.095          50.000    20548485.332    84142607.136       -1151.065          45.000  
J 7  37561473.333   197386873.964       -1403.380          40.000    37561471.318   153807951.959       -1093.544          46.000  
C 3  38095549.319   198373522.192       -1438.998          43.000    38095542.634   153394962.894       -1112.816          49.000  
C 8  36535541.343   190250149.040       -1830.692          46.000    36535533.579   147113453.563       -1415.527          51.000  
C13  36475823.567   189939183.835       -1489.876          50.000    36475821.192   146873014.554       -1151.968          47.000  
C16  37793834.524   196802410.733       -1235.219          44.000    37793833.870   152180105.944        -955.089          47.000  
C24  25690886.702   133779189.136       -3843.076          42.000                                                                  
C 6  37811954.308   196896763.076       -1107.454          32.000    37811943.078   152253031.054        -857.036          40.000  
R10  20904671.896   111433667.135       -2649.056          47.000                                                                  
R 1  20633812.380   110299527.382         -77.766          38.000    20633809.862    85788526.833         -60.441          40.000  
R 8  20937036.811   112116879.012       -2414.637          48.000    20937035.357    87202011.584       -1878.071          47.000  
G18  21934949.383   115268964.400        -926.431          45.000    21934955.419    89819963.165        -721.665          38.000  
G24  21252163.558   111680870.064        1171.552          47.000    21252163.827    87024056.565         912.903          48.000  
E33  25655653.945   134821370.525       -3719.598          45.000    25655654.568   103304687.320       -2850.033          49.000  
C32  24724528.390   128747116.991         842.159          31.000                                                                  
C27  25605805.636   133336149.337       -3759.434          38.000                                                                  
E 7  27418916.031   144087372.863       -3223.515          43.000    27418918.487   110404623.005       -2470.070          43.000  
E20  24476105.719   128622821.387       -1091.364          34.000                                                                  
G23  23405859.611   122998625.379        1688.460          40.000    23405859.639    95843084.871        1315.648          35.000  
J 1  39176842.367   205875689.579       -1220.068          46.000    39176840.249   160422611.291        -950.928          45.000  
J 3                                                                  37756976.071                3      -1445.554          25.000  
> 2021 10 15  4 44 26.0010000  0 24                     
G28  23978031.085   126005399.235        -684.545          32.000                                                                  
G13  21505213.891   113010660.572       -3252.462          47.000                                                                  
G14  24329949.019   127854741.783       -1368.359          45.000    24329945.901    99627051.205       -1066.399          40.000  
G15  20548770.129   107984512.336       -1477.961          50.000    20548766.574    84143758.558       -1151.655          45.000  
J 7  37561740.533   197388277.527       -1404.021          40.000    37561738.377   153809045.645       -1093.881          46.000  
C 3  38095825.773   198374961.577       -1439.622          43.000    38095819.043   153396075.917       -1113.230          48.000  
C 8  36535892.936   190251980.074       -1831.280          46.000    36535885.261   147114869.452       -1416.191          51.000  
C13  36476109.771   189940674.014       -1490.439          50.000    36476107.408   146874166.866       -1152.483          47.000  
C16  37794071.838   196803646.279       -1235.778          44.000    37794071.187   152181061.343        -955.524          47.000  
C24  25691624.917   133783032.888       -3844.081          42.000                                                                  
C 6  37812167.204   196897871.821       -1108.611          32.000    37812155.987   152253888.394        -857.645          40.000  
R10  20905168.980   111436316.943       -2650.509          47.000                                                                  
R 1  20633826.754   110299605.699         -78.739          38.000    20633824.437    85788587.739         -61.154          40.000  
R 8  20937487.871   112119294.159       -2415.529          48.000    20937486.426    87203890.033       -1878.693          47.000  
G18  21935125.728   115269891.441        -927.537          45.000    21935131.868    89820685.531        -722.763          38.000  
G24  21251940.646   111679699.024        1170.496          47.000    21251941.060    87023144.072         912.042          48.000  
E33  25656361.873   134825090.542       -3720.375          45.000    25656362.368   103307537.731       -2850.672          49.000  
C32  24724366.419   128746274.514         842.577          31.000                                                                  
C27  25606527.600   133339909.019       -3760.086          38.000                                                                  
E 7  27419529.552   144090596.755       -3224.069          43.000    27419531.917   110407093.248       -2470.341          43.000  
E20  24476313.397   128623912.839       -1091.175          34.000                                                                  
G23  23405538.277   122996936.962        1688.223          40.000    23405538.377    95841769.214        1316.034          35.000  
J 1  39177074.656   205876909.943       -1220.471          46.000    39177072.408   160423562.223        -951.086          45.000  
J 3                                                                  37757328.266                3      -1446.984          25.000  
> 2021 10 15  4 44 27.0010000  0 25                     
G28  23978161.499   126006084.365        -685.235          32.000                                                                  
G13  21505832.900   113013913.463       -3253.064          47.000                                                                  
G14  24330209.547   127856110.919       -1369.492          45.000    24330206.494    99628118.061       -1067.034          40.000  
G15  20549051.487   107985990.838       -1478.686          50.000    20549047.924    84144910.643       -1152.403          45.000  
J 7  37562007.657   197389681.602       -1404.189          40.000    37562005.585   153810139.736       -1094.031          46.000  
C 3  38096102.409   198376401.468       -1440.090          43.000    38096095.572   153397189.339       -1113.522          48.000  
C 8  36536244.729   190253811.850       -1831.921          46.000    36536237.033   147116285.889       -1416.539          51.000  
C13  36476396.080   189942164.930       -1491.086          50.000    36476393.780   146875319.729       -1152.916          47.000  
C16  37794309.201   196804882.393       -1236.136          44.000    37794308.539   152182017.191        -955.946          47.000  
C24  25692363.294   133786877.500       -3845.070          42.000                                                                  
C 6  37812380.207                       -1108.544          32.000    37812369.032   152254746.170        -857.957          40.000  
R10  20905666.366   111438968.175       -2651.894          47.000                                                                  
R 1  20633841.309   110299684.711         -79.200          39.000    20633839.169    85788649.207         -61.665          40.000  
R 8  20937939.077   112121710.078       -2416.058          48.000    20937937.699    87205769.079       -1879.145          47.000  
R11  20753642.956                3       1521.510          24.000                                                                  
G18  21935302.308   115270819.681        -928.754          45.000    21935308.592    89821408.841        -723.801          38.000  
G24  21251717.879   111678528.985        1169.788          47.000    21251718.309    87022232.360         911.389          48.000  
E33  25657069.854   134828811.387       -3721.082          45.000    25657070.516   103310388.765       -2851.151          49.000  
C32  24724204.819   128745432.628         841.583          31.000                                                                  
C27  25607249.732   133343669.377       -3760.385          38.000                                                                  
E 7  27420143.054   144093821.175       -3224.358          43.000    27420145.636   110409563.915       -2470.744          43.000  
E20  24476521.448   128625004.978       -1092.862          34.000                                                                  
G23  23405217.068   122995249.200        1687.509          40.000    23405217.253    95840454.098        1315.011          35.000  
J 1  39177307.021   205878130.758       -1220.996          46.000    39177304.700   160424513.501        -951.294          45.000  
J 3                                                                  37757681.306                3      -1447.009          25.000  
> 2021 10 15  4 44 28.0010000  0 24                     
G28  23978292.113   126006770.621        -686.594          32.000                                                                  
G13  21506452.107   113017167.139       -3253.995          47.000                                                                  
G14  24330470.298   127857481.232       -1370.785          45.000    24330467.237    99629185.825       -1068.218          40.000  
G15  20549333.000   107987470.251       -1479.784          50.000    20549329.450    84146063.429       -1153.226          45.000  
J 7  37562275.018   197391086.305       -1404.867          40.000    37562272.859   153811234.306       -1094.772          46.000  
C 3  38096378.963   198377841.961       -1440.944          43.000    38096372.268   153398303.209       -1114.041          48.000  
C 8  36536596.569   190255644.423       -1832.893          46.000    36536588.907   147117702.953       -1417.346          51.000  
C13  36476682.534   189943656.627       -1492.040          50.000    36476680.329   146876473.218       -1153.913          47.000  
C16  37794546.715   196806119.155       -1236.978          44.000    37794545.994   152182973.533        -956.566          46.000  
C24  25693101.827   133790723.032       -3846.058          42.000                                                                  
C 6  37812593.368   196900091.108       -1110.797          31.000    37812582.185   152255604.460        -858.560          40.000  
R10  20906164.062   111441620.879       -2653.573          47.000                                                                  
R 1  20633856.082   110299764.523         -80.090          39.000    20633854.058    85788711.290         -62.418          40.000  
R 8  20938390.296   112124126.848       -2417.114          48.000    20938389.077    87207648.790       -1880.190          47.000  
G18  21935479.201   115271749.193        -930.231          45.000    21935485.500    89822133.122        -724.828          38.000  
G24  21251495.452   111677360.045        1168.500          47.000    21251495.800    87021321.491         910.431          48.000  
E33  25657778.166   134832533.142       -3722.218          45.000    25657778.689   103313240.490       -2852.020          49.000  
C32  24724043.138   128744591.315         842.042          31.000                                                                  
C27  25607972.096   133347430.465       -3761.202          38.000                                                                  
E 7  27420756.719   144097046.220       -3225.448          43.000    27420759.278   110412035.037       -2471.156          43.000  
E20  24476729.457   128626097.703       -1092.628          34.000                                                                  
G23  23404895.933   122993562.128        1686.513          40.000    23404896.138    95839139.489        1314.038          35.000  
J 1  39177539.459   205879352.079       -1221.564          46.000    39177537.135   160425465.183        -951.910          45.000  
J 3                                                                  37758034.565                3      -1447.820          25.000  
> 2021 10 15  4 44 29.0010000  0 24                     
G28  23978423.010   126007457.954        -687.590          31.000                                                                  
G13  21507071.458   113020421.613       -3254.751          47.000                                                                  
G14  24330731.236   127858852.734       -1372.164          45.000    24330728.181    99630254.548       -1069.583          39.000  
G15  20549614.759   107988950.597       -1480.863          50.000    20549611.260    84147216.940       -1153.892          45.000  
J 7  37562542.423   197392491.625       -1405.627          40.000    37562540.285   153812329.362       -1095.238          46.000  
C 3  38096655.679   198379283.081       -1441.362          43.000    38096648.976   153399417.578       -1114.578          48.000  
C 8  36536948.721   190257477.810       -1833.896          46.000    36536940.984   147119120.639       -1418.052          51.000  
C13  36476969.167   189945149.089       -1492.829          50.000    36476966.949   146877627.274       -1154.327          47.000  
C16  37794784.275   196807356.579       -1237.412          44.000    37794783.670   152183930.391        -957.095          46.000  
C24  25693840.503   133794569.515       -3847.075          42.000                                                                  
C 6  37812806.698                       -1110.554          31.000    37812795.487   152256463.258        -858.884          40.000  
R10  20906661.959   111444275.081       -2654.976          47.000                                                                  
R 1  20633871.070   110299845.144         -81.146          39.000    20633868.977    85788773.980         -63.060          40.000  
R 8  20938841.731   112126544.496       -2418.124          48.000    20938840.527    87209529.176       -1880.567          47.000  
G18  21935656.259   115272679.993        -931.617          45.000    21935662.670    89822858.402        -725.536          38.000  
G24  21251273.254   111676192.226        1167.279          47.000    21251273.532    87020411.506         909.436          48.000  
E33  25658486.389   134836255.780       -3722.981          45.000    25658487.066   103316092.914       -2852.752          49.000  
C32  24723881.686                         840.056          31.000                                                                  
C27  25608694.615   133351192.326       -3762.156          38.000                                                                  
E 7  27421370.619   144100271.880       -3225.936          43.000    27421373.152   110414506.652       -2471.843          43.000  
E20  24476937.733   128627191.234       -1093.589          34.000                                                                  
G23  23404575.003   122991875.764        1686.082          40.000    23404575.263    95837825.440        1313.703          35.000  
J 1  39177771.993   205880573.941       -1222.198          46.000    39177769.569   160426417.280        -952.258          45.000  
J 3                                                                  37758388.054                3      -1447.715          25.000  
> 2021 10 15  4 44 30.0010000  0 24                     
G28  23978553.939   126008146.392        -688.762          31.000                                                                  
G13  21507690.912   113023676.889       -3255.998          47.000                                                                  
G14  24330992.526   127860225.405       -1373.398          45.000    24330989.312    99631324.150       -1070.321          39.000  
G15  20549896.673   107990431.859       -1481.859          50.000    20549893.158    84148371.167       -1154.610          45.000  
J 7  37562809.963   197393897.546       -1406.453          40.000    37562807.759   153813424.886       -1095.966          46.000  
C 3  38096932.525   198380724.803       -1442.171          43.000    38096925.862   153400532.424       -1115.121          49.000  
C 8  36537300.999   190259311.962       -1834.664          46.000    36537293.249   147120538.948       -1418.716          51.000  
C13  36477255.971   189946642.325       -1493.807          50.000    36477253.749   146878781.954       -1154.953          47.000  
C16  37795022.088   196808594.667       -1238.557          44.000    37795021.410   152184887.766        -957.548          46.000  
C24  25694579.503   133798416.937       -3847.854          43.000                                                                  
C 6  37813020.274   196902313.004       -1111.488          30.000    37813008.853   152257322.580        -859.324          40.000  
R10  20907160.161   111446930.770       -2656.435          47.000                                                                  
R 1  20633886.091   110299926.542         -81.822          40.000    20633884.251    85788837.299         -63.962          40.000  
R 8  20939293.210   112128963.029       -2419.082          48.000    20939292.148    87211410.259       -1881.552          47.000  
G18  21935833.522   115273612.070        -932.857          45.000    21935840.137    89823584.718        -726.969          37.000  
G24  21251051.247   111675025.496        1165.906          47.000    21251051.510    87019502.358         908.569          48.000  
E33  25659195.052   134839979.342       -3724.298          45.000    25659195.716   103318946.035       -2853.506          49.000  
C32  24723720.521                         839.482          31.000                                                                  
C27  25609417.060   133354954.912       -3763.202          38.000                                                                  
E 7  27421984.499   144103498.179       -3226.762          43.000    27421987.164   110416978.752       -2472.276          43.000  
E20  24477146.095   128628285.487       -1095.277          34.000                                                                  
G23  23404254.210   122990190.129        1684.971          40.000    23404254.491    95836511.925        1313.454          35.000  
J 1  39178004.606   205881796.307       -1222.571          46.000    39178002.233   160427369.784        -952.887          45.000  
J 3                                                                  37758742.481                3      -1448.829          25.000  
> 2021 10 15  4 44 31.0010000  0 24                     
G28  23978684.992   126008835.862        -690.222          31.000                                                                  
G13  21508310.494   113026932.890       -3256.414          47.000                                                                  
G14  24331253.918   127861599.197       -1374.414          45.000    24331250.755    99632394.654       -1071.510          39.000  
G15  20550178.799   107991914.001       -1482.652          50.000    20550175.235    84149526.083       -1155.307          45.000  
J 7  37563077.590   197395304.031       -1406.857          40.000    37563075.385   153814520.847       -1096.299          46.000  
C 3  38097209.463   198382167.079       -1442.579          43.000    38097202.784   153401647.687       -1115.569          48.000  
C 8  36537653.414   190261146.894       -1835.234          46.000    36537645.598   147121957.818       -1419.114          51.000  
C13  36477542.906   189948136.304       -1494.427          50.000    36477540.661   146879937.195       -1155.521          47.000  
C16  37795259.920   196809833.356       -1238.818          44.000    37795259.285   152185845.598        -958.105          46.000  
C24  25695318.546   133802265.247       -3848.583          42.000                                                                  
C 6  37813233.957                       -1111.328          31.000    37813222.374   152258182.377        -860.122          40.000  
R10  20907658.586   111449587.903       -2657.913          47.000                                                                  
R 1  20633901.176   110300008.688         -82.300          40.000    20633899.623    85788901.183         -64.214          40.000  
R 8  20939744.974   112131382.380       -2419.771          48.000    20939743.967    87213291.963       -1881.953          47.000  
G18  21936011.027   115274545.375        -933.863          45.000    21936017.778    89824311.965        -728.099          37.000  
G24  21250829.544   111673859.807        1165.125          47.000    21250829.660    87018594.031         907.904          48.000  
E33  25659903.929   134843703.733       -3724.818          45.000    25659904.374   103321799.794       -2854.140          49.000  
C32  24723559.260                         838.608          31.000                                                                  
C27  25610139.686   133358718.221       -3764.048          38.000                                                                  
E 7  27422598.574   144106725.034       -3227.254          43.000    27422601.229   110419451.285       -2472.875          43.000  
E20  24477354.433   128629380.342       -1094.774          34.000                                                                  
G23  23403933.537   122988505.136        1684.600          40.000    23403933.741    95835198.971        1312.607          35.000  
J 1  39178237.345   205883019.166       -1222.833          46.000    39178234.919   160428322.659        -953.064          45.000  
J 3                                                                  37759096.831                3      -1451.694          25.000  
> 2021 10 15  4 44 32.0010000  0 24                     
G28  23978816.379   126009526.311        -691.092          31.000                                                                  
G13  21508930.230   113030189.586       -3257.082          47.000                                                                  
G14  24331515.649   127862974.070       -1375.377          45.000    24331512.321    99633465.977       -1072.077          39.000  
G15  20550461.019   107993396.933       -1483.400          50.000    20550457.285    84150681.615       -1155.992          45.000  
J 7  37563345.272   197396711.003       -1407.032          40.000    37563343.111   153815617.204       -1096.601          46.000  
C 3  38097486.488   198383609.873       -1443.267          43.000    38097479.874   153402763.340       -1115.969          48.000  
C 8  36538005.940   190262982.513       -1836.103          46.000    36537998.061   147123377.233       -1419.710          51.000  
C13  36477829.935   189949630.967       -1495.051          50.000    36477827.628   146881092.962       -1156.038          47.000  
C16  37795497.875   196811072.592       -1239.589          44.000    37795497.210   152186803.853        -958.557          46.000  
C24  25696057.787   133806114.402       -3849.601          43.000                                                                  
C 6  37813447.598                       -1113.155          30.000    37813436.053   152259042.584        -860.491          40.000  
R10  20908157.413   111452246.412       -2659.310          47.000                                                                  
R 1  20633916.472   110300091.558         -83.302          40.000    20633915.093    85788965.632         -64.479          40.000  
R 8  20940196.939   112133802.468       -2420.552          48.000    20940195.824    87215174.267       -1882.587          47.000  
G18  21936188.794   115275479.864        -935.162          45.000    21936195.689    89825040.124        -728.494          37.000  
G24  21250607.851   111672695.116        1164.124          47.000    21250608.101    87017686.486         907.043          48.000  
E33  25660613.001   134847428.937       -3725.692          45.000    25660613.335   103324654.166       -2854.801          49.000  
C32  24723398.337                         839.476          32.000                                                                  
C27  25610862.509   133362482.129       -3764.314          38.000                                                                  
E 7  27423212.673   144109952.402       -3227.578          43.000    27423215.447   110421924.202       -2473.113          43.000  
E20  24477563.003   128630475.841       -1096.189          35.000                                                                  
G23  23403612.896   122986820.750        1684.107          40.000    23403613.169    95833886.431        1312.500          35.000  
J 1  39178470.113   205884242.448       -1223.627          46.000    39178467.700   160429275.863        -953.534          45.000  
J 3                                                                  37759450.924                3      -1448.911          24.000  
> 2021 10 15  4 44 33.0010000  0 24                     
G28  23978947.993   126010217.980        -692.342          30.000                                                                  
G13  21509550.132   113033447.181       -3258.149          47.000                                                                  
G14  24331777.552   127864350.234       -1376.819          45.000    24331774.244    99634538.288       -1072.648          39.000  
G15  20550743.304   107994880.905       -1484.587          50.000    20550739.557    84151837.957       -1156.684          45.000  
J 7  37563613.149   197398118.738       -1408.188          40.000    37563611.010   153816714.118       -1097.237          46.000  
C 3  38097763.767   198385053.370       -1444.007          43.000    38097757.108   153403879.549       -1116.654          48.000  
C 8  36538358.571   190264819.030       -1837.059          46.000    36538350.692   147124797.345       -1420.487          51.000  
C13  36478117.149   189951126.521       -1496.015          50.000    36478114.774   146882249.431       -1156.930          47.000  
C16  37795736.084   196812312.584       -1240.347          44.000    37795735.357   152187762.705        -959.204          46.000  
C24  25696797.054   133809964.593       -3850.587          42.000                                                                  
C 6  37813661.530                       -1113.873          29.000    37813649.868   152259903.406        -861.239          40.000  
R10  20908656.279   111454906.533       -2660.982          47.000                                                                  
R 1  20633931.958   110300175.324         -84.431          40.000    20633930.750    85789030.789         -65.529          40.000  
R 8  20940649.040   112136223.537       -2421.491          48.000    20940647.987    87217057.323       -1883.511          47.000  
G18  21936366.793   115276415.741        -936.774          45.000    21936373.811    89825769.381        -729.968          37.000  
G24  21250386.404   111671531.631        1162.866          47.000    21250386.676    87016779.871         906.146          48.000  
E33  25661321.864   134851155.139       -3726.711          45.000    25661322.337   103327509.312       -2855.593          49.000  
C32  24723237.453   128740394.447         838.275          32.000                                                                  
C27  25611585.467   133366246.897       -3765.199          38.000                                                                  
E 7  27423826.960   144113180.500       -3228.444          43.000    27423829.645   110424397.675       -2473.730          43.000  
E20  24477771.890   128631572.102       -1096.459          35.000                                                                  
G23  23403292.473   122985137.196        1683.216          40.000    23403292.819    95832574.588        1311.093          35.000  
J 1  39178703.002   205885466.356       -1224.329          46.000    39178700.479   160430229.551        -953.967          45.000  
J 3                                                                  37759804.561                3      -1450.243          25.000  
> 2021 10 15  4 44 34.0010000  0 24                     
G28  23979080.011   126010910.698        -693.884          30.000                                                                  
G13  21510170.067   113036705.534       -3258.504          47.000                                                                  
G14  24332039.572   127865727.515       -1377.635          45.000    24332036.336    99635611.504       -1073.790          39.000  
G15  20551025.853   107996365.740       -1485.040          50.000    20551022.064    84152994.972       -1157.240          45.000  
J 7  37563881.079   197399527.003       -1408.431          40.000    37563879.025   153817811.469       -1097.507          46.000  
C 3  38098041.234   198386497.416       -1444.109          43.000    38098034.433   153404996.173       -1116.731          48.000  
C 8  36538711.303   190266656.279       -1837.419          46.000    36538703.543   147126218.028       -1420.772          51.000  
C13  36478404.446   189952622.810       -1496.432          50.000    36478402.111   146883406.448       -1157.219          47.000  
C16  37795974.295   196813553.178       -1240.566          44.000    37795973.635   152188722.015        -959.470          46.000  
C24  25697536.636   133813815.680       -3851.248          42.000                                                                  
C 6  37813875.449                       -1113.824          29.000    37813863.736   152260764.681        -861.516          40.000  
R10  20909155.675   111457568.084       -2662.129          47.000                                                                  
R 1  20633947.687   110300259.830         -84.773          41.000    20633946.526    85789096.523         -66.280          40.000  
R 8  20941101.294   112138645.405       -2422.083          48.000    20941100.174    87218940.993       -1883.690          47.000  
G18  21936545.026   115277352.827        -937.436          45.000    21936552.097    89826499.569        -730.502          37.000  
G24  21250165.103   111670369.182        1162.177          47.000    21250165.584    87015874.073         905.499          48.000  
E33  25662031.191   134854882.199       -3727.366          45.000    25662031.584   103330365.104       -2856.119          49.000  
C32  24723076.844   128739556.926         837.695          32.000                                                                  
C27  25612308.604   133370012.390       -3765.689          37.000                                                                  
E 7  27424441.300   144116409.169       -3228.766          43.000    27424443.965   110426871.586       -2474.132          43.000  
E20  24477980.819   128632669.103       -1097.471          35.000                                                                  
G23  23402972.247   122983454.294        1682.702          40.000    23402972.557    95831263.219        1311.409          35.000  
J 1  39178936.004   205886690.727       -1224.493          46.000    39178933.344   160431183.609        -954.156          45.000  
J 3                                                                  37760157.606                3      -1452.605          25.000  
> 2021 10 15  4 44 35.0010000  0 24                     
G28  23979212.036                        -694.227          30.000                                                                  
G13  21510790.236   113039964.700       -3259.410          47.000                                                                  
G14  24332301.912   127867105.992       -1378.925          45.000    24332298.690    99636685.638       -1074.690          39.000  
G15  20551308.581   107997851.521       -1486.170          50.000    20551304.850    84154152.725       -1157.962          45.000  
J 7  37564149.081   197400935.908       -1409.291          40.000    37564147.001   153818909.310       -1098.013          46.000  
C 3  38098318.820   198387942.093       -1444.883          43.000    38098311.870   153406113.286       -1117.260          48.000  
C 8  36539064.330   190268494.379       -1838.431          46.000    36539056.502   147127639.364       -1421.606          51.000  
C13  36478691.987   189954119.912       -1497.526          50.000    36478689.579   146884564.095       -1157.833          47.000  
C16  37796212.722   196814794.448       -1241.351          44.000    37796212.042   152189681.837        -960.004          46.000  
C24  25698276.501   133817667.732       -3852.561          43.000                                                                  
C 6  37814089.347                       -1114.904          29.000    37814077.810   152261626.487        -862.028          40.000  
R10  20909655.452   111460231.154       -2663.790          47.000                                                                  
R 1  20633963.435   110300345.131         -85.587          41.000    20633962.462    85789162.853         -66.727          40.000  
R 8  20941553.716   112141068.146       -2423.096          48.000    20941552.540    87220825.350       -1884.662          47.000  
G18  21936723.614   115278291.225        -938.925          45.000    21936730.653    89827230.774        -731.497          37.000  
G24  21249944.169   111669207.867        1160.815          47.000    21249944.535    87014969.149         904.456          48.000  
E33  25662740.565   134858610.162       -3728.328          45.000    25662740.974   103333221.592       -2856.735          49.000  
C32  24722916.242   128738720.060         836.753          32.000                                                                  
C27  25613031.938   133373778.660       -3767.071          37.000                                                                  
E 7  27425055.873   144119638.472       -3229.587          43.000    27425058.491   110429345.983       -2474.707          43.000  
E20  24478189.964   128633766.760       -1098.229          35.000                                                                  
G23  23402652.179   122981772.110        1682.011          40.000    23402652.441    95829952.441        1310.614          35.000  
J 1  39179169.156   205887915.647       -1225.183          46.000    39179166.336   160432138.086        -954.602          45.000  
J 3                                                                  37760511.827                3      -1450.966          25.000  
> 2021 10 15  4 44 36.0010000  0 24                     
G28  23979344.230                        -695.035          30.000                                                                  
G13  21511410.575   113043224.569       -3260.381          47.000                                                                  
G14  24332564.470   127868485.553       -1380.205          45.000    24332561.163    99637760.618       -1075.624          39.000  
G15  20551591.490   107999338.127       -1487.112          50.000    20551587.816    84155311.119       -1158.885          45.000  
J 7  37564417.330   197402345.313       -1409.953          40.000    37564415.172   153820007.555       -1098.708          46.000  
C 3  38098596.383   198389387.279       -1445.613          43.000    38098589.320   153407230.802       -1117.937          49.000  
C 8  36539417.507   190270333.174       -1839.219          46.000    36539409.601   147129061.239       -1422.198          51.000  
C13  36478979.604   189955617.696       -1498.164          50.000    36478977.164   146885722.286       -1158.545          47.000  
C16  37796451.219   196816036.290       -1242.357          44.000    37796450.448   152190642.105        -960.511          46.000  
C24  25699016.464   133821520.612       -3853.501          43.000                                                                  
C 6  37814303.468                       -1115.281          28.000    37814291.941   152262488.747        -862.753          40.000  
R10  20910155.291   111462895.627       -2665.267          48.000                                                                  
R 1  20633979.471   110300431.124         -86.554          41.000    20633978.429    85789229.749         -67.293          40.000  
R 8  20942006.307   112143491.663       -2423.907          48.000    20942005.157    87222710.312       -1885.285          47.000  
G18  21936902.235   115279230.805        -940.328          45.000    21936909.440    89827962.923        -732.439          37.000  
G24  21249723.381   111668047.544        1159.705          47.000    21249723.756    87014065.001         903.735          48.000  
E33  25663450.185   134862338.929       -3729.307          45.000    25663450.549   103336078.705       -2857.552          49.000  
C32  24722755.843   128737883.806         835.354          33.000                                                                  
C27  25613755.270   133377545.533       -3767.431          37.000                                                                  
E 7  27425670.502   144122868.288       -3230.240          43.000    27425673.074   110431820.780       -2475.144          43.000  
E20  24478399.060   128634864.997       -1098.322          35.000                                                                  
G23  23402332.208   122980090.549        1680.818          40.000    23402332.519    95828642.140        1309.778          35.000  
J 1  39179402.408   205889140.992       -1225.690          46.000    39179399.495   160433092.906        -955.096          45.000  
J 3                                                                  37760867.339                3      -1452.483          25.000  
> 2021 10 15  4 44 37.0010000  0 24                     
G28  23979476.717   126012995.122        -696.820          29.000                                                                  
G13  21512030.992   113046485.122       -3260.732          47.000                                                                  
G14  24332827.174   127869866.193       -1380.710          45.000    24332823.803    99638836.451       -1076.064          39.000  
G15  20551874.475   108000825.568       -1487.658          50.000    20551870.981    84156470.168       -1159.327          45.000  
J 7  37564685.678   197403755.240       -1410.182          40.000    37564683.519   153821106.199       -1098.768          46.000  
C 3  38098873.951   198390832.973       -1445.599          43.000    38098866.994   153408348.708       -1118.088          49.000  
C 8  36539770.829   190272172.680       -1839.485          46.000    36539762.949   147130483.661       -1422.572          51.000  
C13  36479267.421   189957116.192       -1498.718          50.000    36479264.967   146886881.015       -1158.852          47.000  
C16  37796689.773   196817278.688       -1242.573          44.000    37796689.065   152191602.816        -961.043          46.000  
C24  25699756.566   133825374.353       -3853.960          42.000                                                                  
C 6  37814517.700                       -1115.604          28.000    37814506.222   152263351.428        -862.882          40.000  
R10  20910655.330   111465561.517       -2666.499          48.000                                                                  
R 1  20633995.467   110300517.829         -86.907          40.000    20633994.534    85789297.183         -67.872          40.000  
R 8  20942459.058   112145915.983       -2424.554          48.000    20942457.854    87224595.889       -1885.823          47.000  
G18  21937081.138   115280171.575        -941.210          45.000    21937088.448    89828695.984        -733.466          37.000  
G24  21249502.848   111666888.236        1158.826          47.000    21249503.184    87013161.649         903.058          48.000  
E33  25664160.058   134866068.515       -3729.867          45.000    25664160.276   103338936.432       -2857.900          49.000  
C32  24722595.570   128737047.985         835.490          33.000                                                                  
C27  25614478.810   133381313.072       -3767.406          37.000                                                                  
E 7  27426285.109   144126098.651       -3230.429          43.000    27426287.768   110434295.991       -2475.400          43.000  
E20  24478608.247   128635963.925       -1099.245          35.000                                                                  
G23  23402012.320   122978409.610        1680.732          40.000    23402012.665    95827332.307        1309.914          35.000  
J 1  39179635.615   205890366.775       -1225.861          46.000    39179632.679   160434048.063        -955.408          45.000  
J 3                                                                  37761220.850                3      -1452.771          25.000  
> 2021 10 15  4 44 38.0010000  0 25                     
G28  23979609.368                        -697.103          29.000                                                                  
G13  21512651.570   113049746.453       -3261.603          47.000                                                                  
G14  24333090.170   127871248.022       -1382.491          45.000    24333086.822    99639913.181       -1076.906          39.000  
G15  20552157.639   108002313.901       -1488.653          50.000    20552154.305    84157629.906       -1159.965          45.000  
J 7  37564954.151   197405165.750       -1410.555          40.000    37564951.886   153822205.315       -1099.381          46.000  
C 3  38099151.723   198392279.274       -1446.635          43.000    38099144.839   153409467.079       -1118.606          48.000  
C 8  36540124.245   190274012.970       -1840.652          46.000    36540116.370   147131906.690       -1423.254          51.000  
C13  36479555.323   189958615.432       -1499.530          50.000    36479552.866   146888040.331       -1159.559          47.000  
C16  37796928.507   196818521.721       -1243.389          43.000    37796927.742   152192564.002        -961.344          46.000  
C24  25700496.761   133829229.006       -3854.990          43.000                                                                  
C 6  37814732.117                       -1116.421          28.000    37814720.591   152264214.628        -863.521          40.000  
R10  20911155.789   111468228.872       -2667.895          48.000                                                                  
R 1  20634011.571   110300605.282         -87.627          40.000    20634010.867    85789365.205         -68.212          40.000  
R 8  20942911.983   112148341.157       -2425.445          48.000    20942910.640    87226482.130       -1886.382          47.000  
R17  23209355.015                2        -19.955          32.000    23209341.563                2        -17.933          32.000  
G18  21937260.372   115281113.599        -942.468          45.000    21937267.630    89829430.036        -734.438          36.000  
G24  21249282.334   111665729.999        1157.758          47.000    21249282.792    87012259.132         902.240          48.000  
E33  25664869.830   134869798.975       -3730.944          45.000    25664870.178   103341794.843       -2858.828          49.000  
C32  24722435.342   128736212.857         834.218          33.000                                                                  
C27  25615202.402   133385081.343       -3768.553          37.000                                                                  
E 7  27426900.234   144129329.600       -3231.205          43.000    27426902.623   110436771.642       -2475.757          43.000  
E20  24478817.696   128637063.495       -1099.894          35.000                                                                  
G23  23401692.525   122976729.359        1679.882          40.000    23401692.991    95826023.037        1308.859          35.000  
J 1  39179868.905   205891593.052       -1226.410          46.000    39179866.023   160435003.605        -955.524          45.000  
J 3                                                                  37761576.252                3      -1452.099          25.000  
> 2021 10 15  4 44 39.0010000  0 25                     
G28  23979742.009   126014389.864        -698.297          28.000                                                                  
G13  21513272.389   113053008.499       -3262.562          47.000                                                                  
G14  24333353.343   127872630.903       -1383.346          44.000    24333349.962    99640990.770       -1077.925          39.000  
G15  20552440.959   108003803.079       -1489.607          50.000    20552437.794    84158790.306       -1160.775          46.000  
J 7  37565222.630   197406576.811       -1411.396          40.000    37565220.474   153823304.833       -1099.674          46.000  
C 3  38099429.667   198393726.097       -1447.143          43.000    38099422.660   153410585.850       -1118.955          48.000  
C 8  36540477.671   190275853.993       -1841.504          46.000    36540469.835   147133330.287       -1423.966          51.000  
C13  36479843.413   189960115.381       -1500.470          50.000    36479840.881   146889200.178       -1160.169          47.000  
C16  37797167.514   196819765.332       -1243.853          43.000    37797166.550   152193525.640        -961.816          46.000  
C24  25701237.189   133833084.527       -3856.104          43.000                                                                  
C 6  37814946.613                       -1117.085          28.000    37814935.117   152265078.253        -863.608          40.000  
R10  20911656.522   111470897.654       -2669.441          48.000                                                                  
R 1  20634027.851   110300693.483         -88.642          40.000    20634027.320    85789433.791         -68.904          40.000  
R 8  20943365.034   112150767.105       -2426.350          48.000    20943363.726    87228368.979       -1887.190          47.000  
R17  23209344.859                2        -24.992          33.000    23209330.173                2        -18.027          33.000  
G18  21937439.869   115282056.822        -943.857          45.000    21937447.089    89830165.013        -735.431          36.000  
G24  21249062.142   111664572.806        1156.555          47.000    21249062.615    87011357.421         901.239          48.000  
E33  25665580.060   134873530.240       -3731.770          45.000    25665580.225   103344653.867       -2859.457          49.000  
C32  24722275.219   128735378.209         834.922          33.000                                                                  
C27  25615926.190   133388850.283       -3769.323          37.000                                                                  
E 7  27427514.908   144132561.100       -3231.822          43.000    27427517.507   110439247.714       -2476.250          43.000  
E20  24479027.126   128638163.716       -1100.623          36.000                                                                  
G23  23401372.931   122975049.709        1679.613          40.000    23401373.436    95824714.235        1308.343          35.000  
J 1  39180102.291   205892819.782       -1226.886          46.000    39180099.508   160435959.501        -956.207          45.000  
J 3                                                                  37761931.668                3      -1454.609          25.000  
> 2021 10 15  4 44 40.0010000  0 25                     
G28  23979874.816                        -699.079          28.000                                                                  
G13  21513893.134   113056271.061       -3262.720          47.000                                                                  
G14  24333616.649   127874014.739       -1384.216          44.000    24333613.336    99642069.074       -1078.487          39.000  
G15  20552724.444   108005292.914       -1489.927          50.000    20552721.326    84159951.208       -1160.943          46.000  
J 7  37565491.176   197407988.203       -1411.038          40.000    37565489.036   153824404.630       -1100.002          46.000  
C 3  38099707.491   198395173.268       -1447.126          43.000    38099700.463   153411704.897       -1119.068          48.000  
C 8  36540831.353   190277695.534       -1841.705          47.000    36540823.446   147134754.283       -1424.167          51.000  
C13  36480131.520   189961615.851       -1500.573          51.000    36480129.016   146890360.442       -1160.337          47.000  
C16  37797406.405   196821009.341       -1243.992          44.000    37797405.355   152194487.584        -961.909          46.000  
C24  25701977.738   133836940.720       -3856.302          43.000                                                                  
C 6  37815161.203                       -1117.015          28.000    37815149.667   152265942.204        -863.693          40.000  
R10  20912157.389   111473567.651       -2670.343          48.000                                                                  
R 1  20634044.124   110300782.195         -88.999          40.000    20634043.867    85789502.789         -68.990          39.000  
R 8  20943818.236   112153193.633       -2426.679          48.000    20943816.975    87230256.282       -1887.477          47.000  
R17  23209339.678                2        -25.901          33.000    23209327.404    96598384.7882        -20.382          33.000  
G18  21937619.469   115283001.072        -944.661          44.000    21937626.726    89830900.789        -736.309          36.000  
G24  21248842.115   111663416.435        1156.073          47.000    21248842.425    87010456.358         900.812          48.000  
E33  25666290.066   134877262.161       -3732.138          45.000    25666290.337   103347513.385       -2859.702          49.000  
C32  24722115.015                         833.431          33.000                                                                  
C27  25616650.052   133392619.714       -3769.541          37.000                                                                  
E 7  27428130.014   144135792.939       -3231.966          43.000    27428132.615   110441724.075       -2476.381          43.000  
E20  24479236.647   128639264.342       -1100.936          36.000                                                                  
G23  23401053.376   122973370.549        1679.295          40.000    23401053.901    95823405.765        1308.538          35.000  
J 1  39180335.764   205894046.775       -1226.996          46.000    39180332.894   160436915.597        -956.036          45.000  
J 3                                                                  37762286.271                3      -1452.895          25.000  
> 2021 10 15  4 44 41.0010000  0 25                     
G28  23980007.700                        -699.645          27.000                                                                  
G13  21514514.157   113059534.084       -3263.293          47.000                                                                  
G14  24333880.250   127875399.395       -1385.262          45.000    24333876.878    99643148.036       -1079.131          39.000  
G15  20553008.115   108006783.338       -1490.716          50.000    20553005.052    84161112.579       -1161.610          46.000  
J 7  37565759.753   197409399.907       -1412.091          40.000    37565757.659   153825504.635       -1100.018          46.000  
C 3  38099985.462   198396620.714       -1447.540          43.000    38099978.388   153412824.143       -1119.335          48.000  
C 8  36541185.185   190279537.551       -1842.253          46.000    36541177.234   147136178.644       -1424.583          51.000  
C13  36480419.778   189963116.770       -1501.169          50.000    36480417.245   146891521.046       -1160.778          47.000  
C16  37797645.292   196822253.667       -1244.555          43.000    37797644.342   152195449.768        -962.067          46.000  
C24  25702718.282   133840797.537       -3857.304          43.000                                                                  
C 6  37815375.939                       -1117.601          27.000    37815364.273   152266806.411        -864.378          40.000  
R10  20912658.491   111476238.809       -2671.852          48.000                                                                  
R 1  20634060.574   110300871.379         -89.448          40.000    20634060.588    85789572.168         -69.842          39.000  
R 8  20944271.466   112155620.674       -2427.228          48.000    20944270.030    87232143.990       -1888.026          47.000  
R17  23209339.079   124198021.4092        -27.174          33.000    23209327.794    96598405.1742        -20.840          33.000  
G18  21937799.262   115283946.265        -945.668          44.000    21937806.521    89831637.290        -737.195          36.000  
G24  21248622.141   111662260.826        1155.157          47.000    21248622.522    87009555.880         900.177          48.000  
E33  25667000.306   134880994.631       -3732.645          45.000    25667000.655   103350373.336       -2860.258          49.000  
C32  24721954.916   128733710.108         834.009          33.000                                                                  
C27  25617374.007   133396389.562       -3770.125          37.000                                                                  
E 7  27428745.021   144139025.072       -3232.350          43.000    27428747.537   110444200.627       -2476.633          43.000  
E20  24479446.313   128640365.352       -1101.009          36.000                                                                  
G23  23400733.803   122971691.769        1678.105          40.000    23400734.474    95822097.631        1307.758          35.000  
J 1  39180569.322   205895273.953       -1227.240          46.000    39180566.481   160437871.835        -956.390          45.000  
J 3                                                                  37762641.922                3      -1453.238          25.000  
> 2021 10 15  4 44 42.0010000  0 25                     
G28  23980140.808                        -700.640          27.000                                                                  
G13  21515135.179   113062797.726       -3264.222          47.000                                                                  
G14  24334143.905   127876785.052       -1386.359          44.000    24334140.530    99644227.775       -1080.381          39.000  
G15  20553291.881   108008274.515       -1491.814          50.000    20553288.899    84162274.539       -1162.562          46.000  
J 7  37566028.463   197410812.016       -1412.542          40.000    37566026.378   153826604.989       -1100.640          46.000  
C 3  38100263.475   198398068.592       -1448.369          43.000    38100256.401   153413943.745       -1120.014          48.000  
C 8  36541539.096   190281380.189       -1843.214          46.000    36541531.092   147137603.489       -1425.350          51.000  
C13  36480708.062   189964618.325       -1502.145          50.000    36480705.637   146892682.138       -1161.543          47.000  
C16  37797884.386   196823498.472       -1245.265          43.000    37797883.393   152196412.341        -962.998          45.000  
C24  25703459.048   133844655.099       -3858.248          43.000                                                                  
C 6  37815590.693                       -1118.705          27.000    37815578.968   152267670.999        -864.884          40.000  
R10  20913159.845   111478911.248       -2673.374          48.000                                                                  
R 1  20634077.109   110300961.195         -90.350          40.000    20634077.410    85789642.032         -70.378          39.000  
R 8  20944724.899   112158048.407       -2428.248          48.000    20944723.383    87234032.217       -1888.717          47.000  
R17  23209342.307   124198048.8552        -28.251          33.000    23209330.140    96598426.5452        -22.632          33.000  
G18  21937979.292   115284892.560        -947.091          44.000    21937986.583    89832374.639        -737.826          36.000  
G24  21248402.481   111661106.147        1153.925          47.000    21248402.813    87008656.133         899.164          48.000  
E33  25667710.497   134884727.837       -3733.691          45.000    25667710.998   103353233.841       -2861.021          49.000  
C32  24721794.739   128732876.661         833.158          33.000                                                                  
C27  25618097.964   133400159.979       -3771.080          37.000                                                                  
E 7  27429360.173   144142257.650       -3233.069          43.000    27429362.769   110446677.537       -2477.120          43.000  
E20  24479656.126   128641466.927       -1102.477          36.000                                                                  
G23  23400414.468   122970013.492        1677.685          40.000    23400415.112    95820789.868        1307.723          35.000  
J 1  39180802.883   205896501.487       -1228.088          46.000    39180800.124   160438828.350        -956.720          45.000  
J 3                                                                  37762997.477                3      -1453.362          25.000  
> 2021 10 15  4 44 43.0010000  0 25                     
G28  23980273.997                        -702.256          26.000                                                                  
G13  21515756.359   113066062.118       -3264.897          47.000                                                                  
G14  24334407.720   127878171.854       -1387.286          44.000    24334404.387    99645308.410       -1081.404          39.000  
G15  20553575.865   108009766.570       -1492.588          50.000    20553572.850    84163437.177       -1162.990          46.000  
J 7  37566297.205   197412224.711       -1413.307          40.000    37566295.103   153827705.794       -1101.168          46.000  
C 3  38100541.608   198399517.047       -1448.879          43.000    38100534.542   153415063.780       -1120.427          48.000  
C 8  36541893.140   190283223.594       -1843.966          46.000    36541885.104   147139028.932       -1425.929          51.000  
C13  36480996.546   189966120.605       -1502.883          50.000    36480994.026   146893843.803       -1162.155          47.000  
C16  37798123.521   196824743.902       -1245.892          43.000    37798122.455   152197375.387        -963.466          45.000  
C24  25704200.080   133848513.564       -3858.956          43.000                                                                  
C 6  37815805.743                       -1119.472          27.000    37815793.832   152268536.049        -865.156          40.000  
R10  20913661.481   111481585.137       -2674.845          48.000                                                                  
R 1  20634093.782   110301051.796         -91.026          40.000    20634094.273    85789712.492         -71.058          39.000  
R 8  20945178.328   112160476.973       -2429.178          48.000    20945176.912    87235921.101       -1889.271          47.000  
R17  23209347.077   124198077.6912        -29.572          33.000    23209334.867    96598448.4471        -22.957          33.000  
G18  21938159.589   115285840.101        -948.202          44.000    21938166.750    89833113.004        -739.017          36.000  
G24  21248182.848   111659952.533        1152.893          47.000    21248183.250    87007757.216         898.370          48.000  
E33  25668421.158   134888461.904       -3734.478          45.000    25668421.688   103356095.011       -2861.629          49.000  
C32  24721634.719   128732043.813         832.361          33.000                                                                  
C27  25618822.182   133403931.082       -3771.459          37.000                                                                  
E 7  27429975.502   144145490.817       -3233.624          43.000    27429978.000   110449154.903       -2477.661          44.000  
E20  24479866.065   128642569.125       -1102.226          36.000                                                                  
G23  23400095.231   122968335.904        1677.089          40.000    23400096.047    95819482.682        1306.910          35.000  
J 1  39181036.600   205897729.504       -1228.375          46.000    39181033.899   160439785.245        -957.062          45.000  
J 3                                                                  37763352.536                3      -1454.087          26.000  
> 2021 10 15  4 44 44.0010000  0 26                     
G28  23980407.448                        -703.288          26.000                                                                  
G13  21516377.764   113069327.336       -3265.470          47.000                                                                  
G14  24334671.806   127879559.900       -1388.645          44.000    24334668.438    99646389.962       -1081.992          39.000  
G15  20553859.943   108011259.573       -1493.224          50.000    20553856.954    84164600.548       -1163.425          46.000  
J 7  37566566.235   197413638.046       -1413.449          40.000    37566564.044   153828807.086       -1101.464          46.000  
C 3  38100820.056   198400966.118       -1449.052          43.000    38100812.845   153416184.300       -1120.522          48.000  
C 8  36542247.364   190285067.834       -1844.364          46.000    36542239.189   147140455.010       -1426.201          51.000  
C13  36481285.261   189967623.710       -1503.291          50.000    36481282.672   146895006.098       -1162.444          47.000  
C16  37798362.700   196825990.008       -1246.308          43.000    37798361.751   152198338.949        -963.646          45.000  
C24  25704941.070   133852373.021       -3859.857          43.000                                                                  
C 6  37816020.580                       -1119.585          26.000    37816008.817   152269401.672        -865.911          40.000  
R10  20914163.404   111484260.526       -2675.922          48.000                                                                  
R 1  20634110.676   110301143.221         -91.783          40.000    20634111.308    85789783.589         -71.360          39.000  
R 8  20945631.842   112162906.409       -2429.502          48.000    20945630.561    87237810.669       -1889.864          47.000  
R17  23209352.134   124198107.9272        -30.231          33.000    23209338.944    96598472.004         -24.020          33.000  
G18  21938340.063   115286788.949        -949.355          44.000    21938347.156    89833852.339        -739.364          36.000  
G24  21247963.590   111658800.043        1152.020          47.000    21247963.957    87006859.171         897.742          48.000  
E33  25669132.121   134892196.912       -3735.220          45.000    25669132.378   103358956.891       -2862.206          49.000  
C32  24721474.884   128731211.655         831.448          33.000                                                                  
C27  25619546.513   133407702.977       -3772.240          37.000                                                                  
E 7  27430590.852   144148724.620       -3233.862          43.000    27430593.395   110451632.752       -2477.936          44.000  
E20  24480076.119   128643672.122       -1103.282          36.000                                                                  
G23  23399776.128   122966659.049        1676.710          40.000    23399777.067    95818176.047        1306.004          35.000  
C 9  39229782.258                3       -997.243          10.000                                                                  
J 1  39181270.375   205898958.074       -1228.644          46.000    39181267.691   160440742.584        -957.416          45.000  
J 3                                                                  37763706.843                3      -1454.300          25.000  
> 2021 10 15  4 44 45.0010000  0 25                     
G28  23980541.137                        -704.414          25.000                                                                  
G13  21516999.228   113072593.310       -3266.560          47.000                                                                  
G14  24334936.194   127880949.051       -1390.173          44.000    24334932.814    99647472.440       -1083.225          39.000  
G15  20554144.363   108012753.453       -1494.405          50.000    20554141.227    84165764.618       -1164.510          46.000  
J 7  37566835.293   197415051.950       -1414.658          40.000    37566833.011   153829908.821       -1101.932          46.000  
C 3  38101098.461   198402415.783       -1450.113          43.000    38101091.245   153417305.270       -1121.295          48.000  
C 8  36542601.601   190286912.803       -1845.484          46.000    36542593.523   147141881.658       -1427.027          51.000  
C13  36481573.971   189969127.544       -1504.300          50.000    36481571.548   146896168.964       -1163.262          48.000  
C16  37798602.199   196827236.740       -1247.288          43.000    37798601.123   152199302.999        -964.318          45.000  
C24  25705682.523   133856233.358       -3860.998          43.000                                                                  
C 6  37816235.695                       -1120.163          26.000    37816223.951   152270267.744        -866.238          40.000  
R10  20914665.584   111486937.363       -2677.668          48.000                                                                  
R 1  20634127.623   110301235.372         -92.504          40.000    20634128.526    85789855.277         -72.085          39.000  
R 8  20946085.654   112165336.673       -2430.737          48.000    20946084.495    87239700.870       -1890.620          47.000  
R17  23209357.432   124198139.602         -32.370          33.000    23209344.608    96598496.644         -24.875          33.000  
G18  21938520.829   115287739.033        -950.712          44.000    21938527.937    89834592.672        -740.868          36.000  
G24  21247744.589   111657648.607        1150.781          47.000    21247744.839    87005961.951         896.722          48.000  
E33  25669843.005   134895932.761       -3736.480          45.000    25669843.262   103361819.427       -2862.985          49.000  
C32  24721315.184   128730380.046         831.172          33.000                                                                  
C27  25620270.843   133411475.602       -3773.519          37.000                                                                  
E 7  27431206.624   144151959.025       -3235.019          43.000    27431208.850   110454111.038       -2478.424          44.000  
E20  24480286.151   128644775.746       -1103.956          36.000                                                                  
G23  23399457.161   122964982.878        1675.630          40.000    23399458.019    95816869.925        1305.859          35.000  
J 1  39181504.298   205900187.127       -1229.437          46.000    39181501.524   160441700.289        -957.971          45.000  
J 3                                                                  37764061.923                3      -1455.574          25.000  
> 2021 10 15  4 44 46.0010000  0 25                     
G28  23980674.867                        -705.594          25.000                                                                  
G13  21517620.892   113075860.147       -3267.257          47.000                                                                  
G14  24335200.790   127882339.437       -1391.017          44.000    24335197.400    99648555.870       -1084.171          39.000  
G15  20554428.843   108014248.334       -1495.422          51.000    20554425.694    84166929.460       -1165.307          46.000  
J 7  37567104.531   197416466.533       -1415.047          40.000    37567102.262   153831011.099       -1102.629          46.000  
C 3  38101376.864   198403866.122       -1450.542          43.000    38101369.797   153418426.762       -1121.844          48.000  
C 8  36542956.144   190288758.662       -1846.412          46.000    36542948.029   147143308.993       -1427.787          51.000  
C13  36481863.003   189970632.266       -1505.142          51.000    36481860.521   146897332.501       -1163.808          48.000  
C16  37798841.788   196828484.198       -1247.966          43.000    37798840.689   152200267.617        -965.044          45.000  
C24  25706424.001   133860094.717       -3862.045          43.000                                                                  
C 6  37816450.783                       -1120.981          25.000    37816439.241   152271134.418        -867.255          41.000  
R10  20915168.112   111489615.781       -2679.219          48.000                                                                  
R 1  20634144.737   110301328.440         -93.563          40.000    20634145.860    85789927.642         -72.703          39.000  
R 8  20946539.664   112167767.900       -2431.703          48.000    20946538.520    87241591.818       -1891.329          46.000  
R17  23209363.167   124198172.762         -33.768          33.000    23209350.701    96598522.426         -26.995          33.000  
G18  21938701.879   115288690.489        -952.139          44.000    21938708.924    89835334.062        -741.889          36.000  
G24  21247525.768   111656498.364        1149.597          47.000    21247526.020    87005065.653         895.886          48.000  
E33  25670554.169   134899669.599       -3737.367          45.000    25670554.363   103364682.704       -2863.666          49.000  
C32  24721155.617   128729549.171         830.504          33.000                                                                  
C27  25620995.512   133415249.013       -3773.916          37.000                                                                  
E 7  27431822.206   144155194.122       -3235.668          43.000    27431824.424   110456589.887       -2479.191          44.000  
E20  24480496.453   128645880.173       -1104.925          36.000                                                                  
G23  23399138.385   122963307.500        1674.837          40.000    23399139.233    95815564.425        1305.043          35.000  
J 1  39181738.394   205901416.791       -1230.054          46.000    39181735.586   160442658.459        -958.417          45.000  
J 3                                                                  37764418.476                3      -1455.842          25.000  
> 2021 10 15  4 44 47.0010000  0 25                     
G28  23980808.973                        -706.492          24.000                                                                  
G13  21518242.759   113079127.900       -3268.310          47.000                                                                  
G14  24335465.662   127883731.165       -1392.708          44.000    24335462.109    99649640.322       -1085.188          40.000  
G15  20554713.613   108015744.255       -1496.611          51.000    20554710.270    84168095.117       -1166.277          46.000  
J 7  37567373.919   197417881.847       -1415.780          40.000    37567371.716   153832113.940       -1103.172          46.000  
C 3  38101655.513   198405317.200       -1451.612          43.000    38101648.441   153419548.823       -1122.600          48.000  
C 8  36543310.820   190290605.429       -1847.366          46.000    36543302.655   147144737.032       -1428.493          51.000  
C13  36482152.180   189972137.887       -1506.319          50.000    36482149.764   146898496.742       -1164.661          48.000  
C16  37799081.336   196829732.427       -1248.945          43.000    37799080.352   152201232.829        -965.706          45.000  
C24  25707165.847   133863957.146       -3863.420          43.000                                                                  
C 6  37816666.043                       -1122.119          25.000    37816654.649   152272001.681        -867.829          41.000  
R10  20915670.863   111492295.813       -2681.045          48.000                                                                  
R 1  20634162.047   110301422.401         -94.635          40.000    20634163.441    85790000.726         -73.276          39.000  
R 8  20946993.817   112170200.117       -2432.783          48.000    20946992.746    87243483.552       -1892.288          46.000  
R17  23209369.208   124198207.442         -35.094          33.000    23209357.106    96598549.408         -27.617          33.000  
G18  21938883.194   115289643.350        -953.895          44.000    21938890.160    89836076.516        -742.759          37.000  
G24  21247307.081   111655349.331        1148.352          47.000    21247307.293    87004170.310         894.849          48.000  
E33  25671265.481   134903407.446       -3738.455          45.000    25671265.695   103367546.771       -2864.548          49.000  
C32  24720996.310   128728719.047         829.439          33.000                                                                  
C27  25621720.209   133419023.287       -3774.694          37.000                                                                  
E 7  27432437.740   144158429.949       -3236.486          43.000    27432440.085   110459069.283       -2479.828          43.000  
E20  24480706.782   128646985.409       -1106.026          36.000                                                                  
G23  23398819.629   122961632.934        1674.243          40.000    23398820.552    95814259.580        1304.585          34.000  
J 1  39181972.483   205902647.096       -1230.829          46.000    39181969.765   160443617.144        -959.033          45.000  
J 3                                                                  37764774.786                3      -1457.768          25.000  
> 2021 10 15  4 44 48.0010000  0 25                     
G28  23980943.207                        -707.870          24.000                                                                  
G13  21518864.703   113082396.433       -3268.838          47.000                                                                  
G14  24335730.640   127885124.023       -1393.354          44.000    24335727.116    99650725.681       -1086.000          39.000  
G15  20554998.428   108017241.076       -1497.128          51.000    20554995.133    84169261.464       -1166.566          46.000  
J 7  37567643.311   197419297.763       -1416.165          40.000    37567641.208   153833217.250       -1103.439          46.000  
C 3  38101934.284   198406768.868       -1452.071          43.000    38101927.227   153420671.336       -1122.693          48.000  
C 8  36543665.659   190292452.999       -1847.838          46.000    36543657.372   147146165.689       -1428.975          51.000  
C13  36482441.366   189973644.270       -1506.646          50.000    36482439.109   146899661.578       -1164.924          48.000  
C16  37799321.356   196830981.303       -1249.205          43.000    37799320.103   152202198.527        -965.787          45.000  
C24  25707907.674   133867820.482       -3863.716          43.000                                                                  
C 6  37816881.378                       -1122.897          24.000    37816870.230   152272869.440        -868.053          41.000  
R10  20916173.915   111494977.326       -2682.087          48.000                                                                  
R 1  20634179.499   110301517.171         -95.203          39.000    20634181.072    85790074.437         -73.888          39.000  
R 8  20947448.154   112172633.178       -2433.259          48.000    20947447.056    87245375.934       -1892.653          46.000  
R17  23209375.591   124198243.558         -37.051          33.000    23209363.645    96598577.479         -28.681          33.000  
G18  21939064.624   115290597.460        -954.691          44.000    21939071.614    89836819.955        -743.363          36.000  
G24  21247088.550   111654201.393        1147.357          47.000    21247088.874    87003275.807         894.153          48.000  
E33  25671976.701   134907146.181       -3738.927          45.000    25671977.289   103370411.518       -2864.949          49.000  
C32  24720837.147   128727889.574         829.381          33.000                                                                  
C27  25622445.144   133422798.324       -3775.550          36.000                                                                  
E 7  27433053.525   144161666.374       -3236.464          43.000    27433056.022   110461549.149       -2479.937          43.000  
E20  24480917.479   128648091.324       -1105.769          36.000                                                                  
G23  23398501.055   122959959.075        1673.780          40.000    23398502.131    95812955.272        1304.262          35.000  
J 1  39182206.740   205903877.906       -1231.042          46.000    39182203.975   160444576.214        -959.058          45.000  
J 3                                                                  37765130.418                3      -1456.345          24.000  
> 2021 10 15  4 44 49.0010000  0 26                     
G28  23981077.674                        -708.133          25.000                                                                  
G13  21519486.799   113085665.598       -3269.689          47.000                                                                  
G14  24335995.891   127886517.918       -1394.528          44.000    24335992.376    99651811.826       -1086.725          40.000  
G15  20555283.415   108018738.668       -1498.218          51.000    20555280.101    84170428.411       -1167.238          46.000  
J 7  37567912.824   197420714.123       -1416.769          40.000    37567910.735   153834320.915       -1103.977          46.000  
C 3  38102213.138   198408220.967       -1452.480          43.000    38102206.111   153421794.207       -1123.204          48.000  
C 8  36544020.602   190294301.226       -1848.860          46.000    36544012.315   147147594.844       -1429.638          51.000  
C13  36482730.842   189975151.277       -1507.640          50.000    36482728.575   146900826.895       -1165.840          48.000  
C16  37799561.352   196832230.680       -1249.957          43.000    37799560.025   152203164.629        -966.476          45.000  
C24  25708649.774   133871684.614       -3864.571          43.000                                                                  
C 6  37817096.619                       -1122.752          24.000    37817085.872   152273737.598        -868.350          41.000  
R10  20916677.186   111497660.182       -2683.620          48.000                                                                  
R 1  20634197.171   110301612.545         -96.047          39.000    20634198.912    85790148.629         -74.558          39.000  
R 8  20947902.572   112175066.955       -2434.286          48.000    20947901.476    87247268.866       -1893.294          46.000  
R17  23209382.219   124198280.895         -37.691          34.000    23209370.421    96598606.579         -29.639          33.000  
G18  21939246.436   115291552.707        -956.111          44.000    21939253.294    89837564.319        -744.659          36.000  
G24  21246870.281   111653054.390        1146.259          47.000    21246870.556    87002382.052         893.085          48.000  
E33  25672688.330   134910885.664       -3740.061          45.000    25672688.875   103373276.834       -2865.707          49.000  
C32  24720677.917   128727060.565         828.547          33.000                                                                  
C27  25623170.176   133426573.914       -3775.909          37.000                                                                  
E 7  27433669.597   144164903.282       -3237.477          43.000    27433672.213   110464029.380       -2480.674          44.000  
E20  24481128.092   128649197.857       -1107.705          36.000                                                                  
G23  23398182.683   122958285.775        1672.623          40.000    23398183.739    95811651.409        1303.624          34.000  
J 1  39182440.967   205905109.096       -1231.598          46.000    39182438.261   160445535.574        -959.497          45.000  
E27                                                                  25783807.440   103820707.238        -141.475          37.000  
J 3                                                                  37765485.642                3      -1456.539          24.000  
> 2021 10 15  4 44 50.0010000  0 26                     
G28  23981212.332                        -709.342          23.000                                                                  
G13  21520109.044   113088935.608       -3270.580          47.000                                                                  
G14  24336261.404   127887913.053       -1395.971          44.000    24336257.844    99652898.930       -1087.654          39.000  
G15  20555568.628   108020237.219       -1499.132          51.000    20555565.328    84171596.122       -1168.255          46.000  
J 7  37568182.426   197422131.154       -1417.558          40.000    37568180.358   153835425.090       -1104.495          46.000  
C 3  38102492.062   198409673.729       -1453.138          43.000    38102485.094   153422917.565       -1123.652          48.000  
C 8  36544375.702   190296150.303       -1849.640          46.000    36544367.497   147149024.667       -1430.306          51.000  
C13  36483020.486   189976659.124       -1508.329          50.000    36483018.122   146901992.864       -1166.415          48.000  
C16  37799801.322   196833480.749       -1250.566          43.000    37799800.049   152204131.258        -966.931          45.000  
C24  25709391.931   133875549.714       -3865.479          43.000                                                                  
C 6  37817312.254                       -1123.012          23.000    37817301.750   152274606.302        -869.034          41.000  
R10  20917180.760   111500344.580       -2685.096          48.000                                                                  
R 1  20634214.987   110301708.767         -96.627          39.000    20634216.877    85790223.483         -75.267          39.000  
R 8  20948357.230   112177501.644       -2435.220          48.000    20948356.076    87249162.521       -1894.211          46.000  
R17  23209389.055   124198319.717         -39.274          33.000    23209377.566    96598636.787         -31.446          33.000  
G18  21939428.310   115292509.269        -957.273          44.000    21939435.177    89838309.712        -746.041          37.000  
G24  21246652.207   111651908.538        1145.294          47.000    21246652.529    87001489.176         892.456          48.000  
E33  25673400.119   134914626.084       -3740.906          45.000    25673400.556   103376142.871       -2866.406          49.000  
C32  24720518.876   128726232.244         828.269          33.000                                                                  
C27  25623895.436   133430350.343       -3776.957          37.000                                                                  
E 7  27434285.632   144168140.840       -3237.876          43.000    27434288.264   110466510.093       -2480.866          44.000  
E20  24481338.950   128650305.042       -1107.329          36.000                                                                  
G23  23397864.262   122956613.229        1671.859          40.000    23397865.519    95810348.151        1302.311          34.000  
J 1  39182675.341   205906340.846       -1231.995          46.000    39182672.646   160446495.395        -960.138          45.000  
E27                                                                  25783842.756   103820849.307        -142.810          37.000  
J 3                                                                  37765841.562                3      -1456.378          24.000  
> 2021 10 15  4 44 51.0010000  0 27                     
G28  23981347.210                        -711.000          25.000                                                                  
G13  21520731.382   113092206.381       -3271.036          47.000                                                                  
G14  24336527.044   127889309.321       -1396.470          44.000    24336523.488    99653986.957       -1088.697          39.000  
G15  20555854.017   108021736.679       -1499.787          51.000    20555850.713    84172764.536       -1168.796          46.000  
J 7  37568452.185   197423548.766       -1417.651          40.000    37568450.053   153836529.732       -1104.704          46.000  
C 3  38102771.086   198411127.086       -1453.487          43.000    38102764.086   153424041.392       -1123.894          49.000  
C 8  36544730.962   190298000.137       -1850.051          46.000    36544722.745   147150455.080       -1430.661          51.000  
C13  36483310.151   189978167.710       -1508.922          50.000    36483307.834   146903159.393       -1166.794          48.000  
C16  37800041.523   196834731.467       -1250.904          43.000    37800040.290   152205098.393        -967.180          45.000  
C24  25710134.428   133879415.771       -3866.462          42.000                                                                  
C 6  37817527.697                3      -1123.517          22.000    37817517.631   152275475.518        -869.409          41.000  
R10  20917684.619   111503030.461       -2686.605          48.000                                                                  
R 1  20634232.946   110301805.787         -97.659          39.000    20634234.958    85790298.942         -75.971          39.000  
R 8  20948812.071   112179937.174       -2435.798          48.000    20948810.921    87251056.807       -1894.311          46.000  
R17  23209395.982   124198359.953         -40.883          33.000    23209384.971    96598668.046         -31.681          33.000  
G18  21939610.570   115293467.103        -958.363          44.000    21939617.322    89839056.044        -746.796          37.000  
G24  21246434.425   111650763.775        1144.312          47.000    21246434.649    87000597.155         891.669          48.000  
E33  25674112.119   134918367.391       -3741.525          45.000    25674112.492   103379009.585       -2866.972          49.000  
C32  24720359.995   128725404.520         828.248          33.000                                                                  
C27  25624620.753   133434127.456       -3777.574          37.000                                                                  
E 7  27434901.711   144171379.012       -3238.295          43.000    27434904.548   110468991.294       -2481.424          44.000  
E20  24481549.786   128651413.004       -1108.309          36.000                                                                  
G23  23397546.094   122954941.388        1671.474          40.000    23397547.433    95809045.379        1302.372          34.000  
J 1  39182909.746   205907573.117       -1232.440          46.000    39182907.209   160447455.602        -960.278          45.000  
E27                                                                  25783878.908   103820992.121        -143.248          37.000  
R11                                                                  20746874.527                3       1159.913          26.000  
J 3                                                                  37766196.943                3      -1459.190          24.000  
> 2021 10 15  4 44 52.0010000  0 27                     
G28  23981482.359                        -711.976          25.000                                                                  
G13  21521353.888   113095477.888       -3271.963          47.000                                                                  
G14  24336792.873   127890706.733       -1398.179          44.000    24336789.448    99655075.824       -1089.414          40.000  
G15  20556139.590   108023236.995       -1500.733          51.000    20556136.361    84173933.611       -1169.523          47.000  
J 7  37568722.042   197424966.949       -1418.775          40.000    37568719.919   153837634.808       -1105.421          46.000  
C 3  38103050.216   198412580.968       -1453.918          43.000    38103043.286   153425165.644       -1124.470          49.000  
C 8  36545086.383   190299850.720       -1850.975          46.000    36545078.060   147151886.056       -1431.297          51.000  
C13  36483599.963   189979677.038       -1509.685          51.000    36483597.729   146904326.497       -1167.350          48.000  
C16  37800281.818   196835982.768       -1251.527          43.000    37800280.562   152206065.986        -967.847          45.000  
C24  25710876.979   133883282.675       -3867.382          42.000                                                                  
C 6  37817742.386                3      -1120.601          22.000    37817733.577   152276345.177        -869.698          41.000  
R10  20918188.677   111505717.751       -2688.082          48.000                                                                  
R 1  20634250.994   110301903.505         -98.016          39.000    20634253.212    85790374.930         -76.219          39.000  
R 8  20949267.099   112182373.495       -2436.762          48.000    20949265.889    87252951.737       -1895.209          46.000  
R17  23209403.427   124198401.516         -42.214          33.000    23209392.611    96598700.369         -32.208          33.000  
G18  21939793.010   115294426.147        -959.564          44.000    21939799.754    89839803.362        -748.118          37.000  
G24  21246216.861   111649620.047        1143.127          47.000    21246217.041    86999705.931         890.784          48.000  
E33  25674824.157   134922109.534       -3742.702          45.000    25674824.732   103381876.934       -2867.677          49.000  
C32  24720201.115   128724577.409         826.774          33.000                                                                  
C27  25625346.183   133437905.244       -3778.190          36.000                                                                  
E 7  27435518.197   144174617.735       -3238.970          43.000    27435520.856   110471472.908       -2481.822          44.000  
E20  24481760.629   128652521.580       -1109.066          36.000                                                                  
G23  23397228.097   122953270.181        1670.729          40.000    23397229.517    95807743.150        1301.833          34.000  
J 1  39183144.324   205908805.837       -1233.032          46.000    39183141.835   160448416.162        -960.852          45.000  
E27                                                                  25783914.249   103821135.652        -144.097          37.000  
R11                                                                  20746597.821                3       1160.125          26.000  
J 3                                                                  37766552.053                3      -1459.743          25.000  
> 2021 10 15  4 44 53.0010000  0 27                     
G28  23981617.569                        -713.155          24.000                                                                  
G13  21521976.669   113098750.163       -3272.454          47.000                                                                  
G14  24337059.003   127892105.289       -1399.026          44.000    24337055.573    99656165.618       -1090.334          39.000  
G15  20556425.254   108024738.226       -1501.639          51.000    20556422.065    84175103.399       -1170.146          47.000  
J 7  37568992.073   197426385.714       -1418.998          40.000    37568989.887   153838740.337       -1105.576          46.000  
C 3  38103329.517   198414035.477       -1454.693          43.000    38103322.602   153426290.355       -1124.841          49.000  
C 8  36545441.973   190301702.107       -1851.725          46.000    36545433.657   147153317.667       -1431.770          51.000  
C13  36483890.027   189981187.162       -1510.356          51.000    36483887.776   146905494.225       -1167.812          48.000  
C16  37800522.187   196837234.712       -1252.139          43.000    37800520.920   152207034.067        -968.021          44.000  
C24  25711619.697   133887150.520       -3868.113          42.000                                                                  
C 6  37817960.250                3      -1123.091          20.000    37817949.656   152277215.356        -870.345          41.000  
R10  20918693.072   111508406.529       -2689.443          48.000                                                                  
R 1  20634269.259   110302002.022         -99.024          38.000    20634271.543    85790451.564         -77.133          38.000  
R 8  20949722.136   112184810.659       -2437.465          48.000    20949721.082    87254847.306       -1895.747          46.000  
R17  23209411.118   124198444.505         -43.960          33.000    23209400.516    96598733.830         -33.788          33.000  
G18  21939975.744   115295386.469        -960.875          43.000    21939982.330    89840551.641        -748.721          37.000  
G24  21245999.378   111648477.393        1142.358          47.000    21245999.671    86998815.561         890.076          48.000  
E33  25675536.414   134925852.552       -3743.329          45.000    25675536.950   103384744.964       -2868.242          49.000  
C32  24720042.436   128723750.931         826.008          33.000                                                                  
C27  25626071.715   133441683.799       -3779.153          36.000                                                                  
E 7  27436134.551   144177857.066       -3239.591          43.000    27436137.313   110473954.989       -2482.201          44.000  
E20  24481971.639   128653630.828       -1109.051          37.000                                                                  
G23  23396910.117   122951599.675        1670.213          40.000    23396911.579    95806441.446        1301.647          34.000  
J 1  39183378.962   205910039.064       -1233.307          46.000    39183376.425   160449377.125        -961.047          45.000  
E27                                                                  25783950.716   103821279.936        -144.113          37.000  
R11                                                                  20746319.843                3       1158.795          26.000  
J 3                                                                  37766909.451                3      -1459.569          25.000  
> 2021 10 15  4 44 54.0010000  0 27                     
G28  23981753.053                        -714.568          24.000                                                                  
G13  21522599.472   113102023.082       -3273.324          47.000                                                                  
G14  24337325.318   127893504.868       -1400.380          44.000    24337321.908    99657256.188       -1091.120          40.000  
G15  20556711.149   108026240.215       -1502.586          51.000    20556707.993    84176273.780       -1170.966          47.000  
J 7  37569262.102   197427804.932       -1419.575          40.000    37569259.925   153839846.230       -1106.312          46.000  
C 3  38103608.847   198415490.420       -1455.377          43.000    38103601.978   153427415.407       -1125.386          49.000  
C 8  36545797.623   190303554.123       -1852.483          46.000    36545789.352   147154749.768       -1432.533          51.000  
C13  36484179.943   189982697.883       -1511.185          51.000    36484177.913   146906662.409       -1168.520          48.000  
C16  37800762.665   196838487.165       -1252.937          42.000    37800761.374   152208002.532        -968.743          44.000  
C24  25712362.584   133891019.133       -3869.274          42.000                                                                  
C 6  37818175.521                3      -1129.466          19.000    37818165.842   152278085.906        -870.758          41.000  
R10  20919197.630   111511096.638       -2691.142          48.000                                                                  
R 1  20634287.468   110302101.189         -99.630          38.000    20634290.014    85790528.688         -77.459          38.000  
R 8  20950177.397   112187248.539       -2438.442          48.000    20950176.490    87256743.433       -1896.454          46.000  
R17  23209418.977   124198488.721         -44.769          33.000    23209408.788    96598768.239         -34.952          33.000  
G18  21940158.723   115296347.902        -962.167          44.000    21940165.088    89841300.796        -749.478          38.000  
G24  21245782.205   111647335.688        1141.089          47.000    21245782.433    86997925.919         889.099          48.000  
E33  25676248.647   134929596.321       -3744.192          45.000    25676249.490   103387613.560       -2868.901          49.000  
C32  24719883.728   128722924.867         826.324          33.000                                                                  
C27  25626797.381   133445462.946       -3780.554          36.000                                                                  
E 7  27436751.086   144181096.869       -3240.435          43.000    27436753.931   110476437.441       -2482.961          44.000  
E20  24482182.846   128654740.669       -1110.439          37.000                                                                  
G23  23396592.306   122949929.719        1669.428          40.000    23396593.795    95805140.194        1301.018          34.000  
J 1  39183613.723   205911272.667       -1233.875          46.000    39183611.203   160450338.373        -961.542          45.000  
E27                                                                  25783986.456   103821424.940        -145.474          37.000  
R11                                                                  20746042.794                3       1157.855          25.000  
J 3                                                                  37767265.586                3      -1459.977          25.000  
> 2021 10 15  4 44 55.0010000  0 27                     
G28  23981888.663                        -715.054          24.000                                                                  
G13  21523222.496   113105296.747       -3274.324          47.000                                                                  
G14  24337591.853   127894905.599       -1401.574          44.000    24337588.479    99658347.669       -1092.227          40.000  
G15  20556997.141   108027743.084       -1503.427          51.000    20556994.058    84177444.852       -1171.574          47.000  
J 7  37569532.309   197429224.741       -1420.426          40.000    37569530.118   153840952.568       -1106.870          46.000  
C 3  38103888.424   198416945.934       -1456.042          43.000    38103881.585   153428540.896       -1125.839          49.000  
C 8  36546153.451   190305406.902       -1853.456          46.000    36546145.190   147156182.454       -1433.129          51.000  
C13  36484470.281   189984209.364       -1512.041          51.000    36484468.188   146907831.189       -1169.319          48.000  
C16  37801003.282   196839740.210       -1253.513          42.000    37801002.030   152208971.477        -969.292          44.000  
C24  25713105.722   133894888.652       -3870.207          42.000                                                                  
C 6  37818394.030                3      -1127.984          18.000    37818382.180   152278956.949        -871.429          41.000  
R10  20919702.565   111513788.187       -2692.391          48.000                                                                  
R 1  20634306.003   110302201.125        -100.592          38.000    20634308.771    85790606.403         -77.823          38.000  
R 8  20950632.847   112189687.239       -2439.328          48.000    20950631.869    87258640.201       -1897.194          46.000  
R17  23209427.336   124198534.358         -46.490          33.000    23209417.036    96598803.747         -36.166          34.000  
G18  21940341.904   115297310.582        -963.453          44.000    21940348.143    89842050.935        -751.095          38.000  
G24  21245565.105   111646195.053        1139.868          47.000    21245565.345    86997037.112         888.165          48.000  
E33  25676961.295   134933340.952       -3745.333          45.000    25676962.021   103390482.819       -2869.730          49.000  
C32  24719725.242   128722099.503         824.563          33.000                                                                  
C27  25627523.235   133449242.745       -3780.245          36.000                                                                  
E 7  27437367.711   144184337.234       -3240.902          43.000    27437370.438   110478920.300       -2483.214          44.000  
E20  24482394.258   128655851.116       -1110.590          37.000                                                                  
G23  23396274.708   122948260.441        1668.847          40.000    23396276.112    95803839.445        1300.578          34.000  
J 1  39183848.449   205912506.755       -1234.546          46.000    39183845.938   160451299.997        -961.920          45.000  
E27                                                                  25784022.685   103821570.683        -146.409          36.000  
R11                                                                  20745764.683                3       1157.526          25.000  
J 3                                                                  37767620.759                3      -1459.146          25.000  
> 2021 10 15  4 44 56.0010000  0 27                     
G28  23982024.477                        -715.687          24.000                                                                  
G13  21523845.601   113108571.211       -3275.192          47.000                                                                  
G14  24337858.620   127896307.496       -1402.600          44.000    24337855.246    99659440.059       -1092.997          39.000  
G15  20557283.427   108029246.879       -1504.411          51.000    20557280.222    84178616.632       -1172.333          47.000  
J 7  37569802.630   197430645.146       -1421.110          40.000    37569800.446   153842059.377       -1107.241          46.000  
C 3  38104168.038   198418402.070       -1456.717          43.000    38104161.211   153429666.860       -1126.251          49.000  
C 8  36546509.426   190307260.488       -1854.206          46.000    36546501.209   147157615.766       -1433.856          51.000  
C13  36484760.808   189985721.659       -1512.980          51.000    36484758.568   146909000.575       -1169.780          48.000  
C16  37801243.990   196840993.945       -1254.354          42.000    37801242.864   152209940.951        -970.065          44.000  
C24  25713848.963   133898759.111       -3871.049          42.000                                                                  
C 6  37818607.966                3      -1123.754          17.000    37818598.628   152279828.509        -871.981          41.000  
R10  20920207.727   111516481.240       -2693.930          48.000                                                                  
R 1  20634324.608   110302301.873        -101.125          37.000    20634327.531    85790684.795         -78.879          38.000  
R 8  20951088.512   112192126.810       -2440.238          48.000    20951087.436    87260537.650       -1898.008          46.000  
R17  23209436.102   124198581.454         -47.835          32.000    23209425.692    96598840.367         -37.658          34.000  
G18  21940525.259   115298274.545        -964.862          43.000    21940531.453    89842802.066        -751.619          38.000  
G24  21245348.313   111645055.521        1138.751          47.000    21245348.467    86996149.162         887.378          48.000  
E33  25677673.992   134937086.480       -3746.058          45.000    25677674.748   103393352.768       -2870.336          49.000  
C32  24719566.650   128721274.696         824.178          33.000                                                                  
C27  25628249.288   133453023.339       -3781.507          36.000                                                                  
E 7  27437984.403   144187578.228       -3241.426          43.000    27437987.127   110481403.661       -2483.510          44.000  
E20  24482605.648   128656962.341       -1111.685          37.000                                                                  
G23  23395957.197   122946591.875        1668.086          40.000    23395958.621    95802539.289        1299.641          34.000  
J 1  39184083.438   205913741.374       -1235.065          46.000    39184080.885   160452262.037        -962.390          45.000  
E27                                                                  25784059.213   103821717.195        -147.162          37.000  
R11                                                                  20745488.032                3       1155.324          25.000  
J 3                                                                  37767976.763                3      -1461.006          25.000  
> 2021 10 15  4 44 57.0010000  0 30                     
G28  23982160.598                        -717.306          25.000                                                                  
G13  21524468.846   113111846.398       -3275.897          47.000                                                                  
G14  24338125.560   127897710.509       -1403.702          44.000    24338122.245    99660533.320       -1094.016          40.000  
G15  20557569.749   108030751.521       -1505.284          51.000    20557566.652    84179789.089       -1172.965          47.000  
J 7  37570073.087   197432066.094       -1421.372          40.000    37570070.844   153843166.620       -1107.828          46.000  
C 3  38104447.696   198419858.721       -1457.213          43.000    38104440.943   153430793.256       -1126.740          49.000  
C 8  36546865.684   190309114.808       -1854.965          46.000    36546857.272   147159049.646       -1434.426          51.000  
C13  36485051.516   189987234.618       -1513.514          51.000    36485049.165   146910170.507       -1170.360          48.000  
C16  37801484.969   196842248.250       -1254.725          42.000    37801483.708   152210910.852        -970.312          44.000  
C24  25714592.488   133902630.431       -3871.991          42.000                                                                  
C 6  37818823.036                3      -1134.755          16.000    37818815.217   152280700.516        -872.299          41.000  
R10  20920713.108   111519175.699       -2695.370          48.000                                                                  
R 1  20634343.418   110302403.385        -101.972          37.000    20634346.510    85790763.732         -79.423          38.000  
R 8  20951544.235   112194567.146       -2440.815          48.000    20951543.072    87262435.691       -1898.427          46.000  
R17  23209445.073   124198629.859         -48.686          32.000    23209434.682    96598878.016         -38.019          34.000  
G18  21940708.947   115299239.714        -965.937          43.000    21940715.021    89843554.155        -752.834          38.000  
G24  21245131.736   111643917.004        1137.830          47.000    21245131.773    86995262.015         886.633          48.000  
E33  25678386.746   134940832.838       -3747.057          45.000    25678387.680   103396223.359       -2871.155          49.000  
C32  24719408.300   128720450.509         823.433          33.000                                                                  
C27  25628975.316   133456804.586       -3782.172          35.000                                                                  
R24  22079511.995   118069070.547       -3325.193          39.000                                                                  
R23  23174418.309   123967511.3422      -5308.355          40.000                                                                  
E 7  27438601.344   144190819.766       -3241.931          43.000    27438603.967   110483887.450       -2484.182          44.000  
E20  24482817.128   128658074.152       -1112.275          37.000                                                                  
G23  23395639.935   122944923.945        1667.558          40.000    23395641.285    95801239.617        1299.086          34.000  
C 9  39228341.002                2      -1086.664          31.000                                                                  
J 1  39184318.392   205914976.437       -1235.358          46.000    39184315.962   160453224.431        -962.860          45.000  
E27                                                                  25784095.717   103821864.426        -147.793          37.000  
R11                                                                  20745210.101                3       1155.247          25.000  
J 3                                                                  37768334.006                3      -1460.821          25.000  
> 2021 10 15  4 44 58.0010000  0 30                     
G28  23982297.056                        -717.723          25.000                                                                  
G13  21525092.239   113115122.305       -3275.966          47.000                                                                  
G14  24338392.800   127899114.646       -1404.498          44.000    24338389.434    99661627.445       -1094.208          39.000  
G15  20557856.232   108032257.030       -1505.606          51.000    20557853.186    84180962.214       -1173.216          47.000  
J 7  37570343.618   197433487.600       -1421.575          40.000    37570341.428   153844274.285       -1107.685          46.000  
C 3  38104727.494   198421315.941       -1457.146          43.000    38104720.734   153431920.063       -1126.758          49.000  
C 8  36547221.965   190310969.878       -1855.054          46.000    36547213.486   147160484.107       -1434.515          51.000  
C13  36485342.243   189988748.314       -1513.660          51.000    36485339.775   146911340.990       -1170.514          48.000  
C16  37801725.955   196843503.145       -1254.897          42.000    37801724.747   152211881.218        -970.302          44.000  
C24  25715336.098   133906502.657       -3872.323          42.000                                                                  
C 6  37819037.558                3      -1126.450          15.000    37819031.913   152281573.006        -872.491          41.000  
R10  20921218.885   111521871.599       -2696.282          48.000                                                                  
R 1  20634362.293   110302505.627        -102.346          37.000    20634365.638    85790843.268         -79.742          38.000  
R 8  20952000.087   112197008.299       -2441.228          48.000    20951998.958    87264334.359       -1898.693          46.000  
R17  23209454.247   124198679.671         -50.107          32.000    23209443.931    96598916.716         -38.733          34.000  
G18  21940892.793   115300206.103        -966.546          43.000    21940898.757    89844307.192        -753.177          38.000  
G24  21244915.312   111642779.552        1137.195          47.000    21244915.424    86994375.687         886.108          48.000  
E33  25679099.828   134944580.039       -3747.388          45.000    25679100.824   103399094.589       -2871.352          49.000  
C32  24719249.900   128719626.851         823.901          33.000                                                                  
C27  25629701.545   133460586.510       -3781.523          36.000                                                                  
R24  22080133.855   118072396.056       -3325.843          39.000    22080129.268                2      -2586.507          32.000  
R23  23175410.708   123972819.5632      -5308.263          41.000                                                                  
E 7  27439218.232   144194061.878       -3241.812          43.000    27439220.952   110486371.653       -2483.982          44.000  
E20  24483028.770   128659186.652       -1112.578          37.000                                                                  
G23  23395322.681   122943256.692        1667.388          40.000    23395323.981    95799940.410        1299.806          34.000  
C 9  39228546.792   204273352.5382      -1087.439          31.000                                                                  
J 1  39184553.625   205916211.982       -1235.492          46.000    39184551.098   160454187.188        -962.756          45.000  
E27                                                                  25784132.569   103822012.411        -148.099          37.000  
R11                                                                  20744932.079                3       1153.062          24.000  
J 3                                                                  37768689.978                3      -1460.833          25.000  
> 2021 10 15  4 44 59.0010000  0 30                     
G28  23982433.599                        -718.734          25.000                                                                  
G13  21525715.744   113118398.619       -3276.490          47.000                                                                  
G14  24338660.166   127900519.555       -1405.085          44.000    24338656.750    99662722.178       -1094.798          39.000  
G15  20558142.890   108033763.057       -1506.227          51.000    20558139.886    84182135.746       -1173.857          47.000  
J 7  37570614.118   197434909.304       -1421.683          40.000    37570611.957   153845382.112       -1107.939          46.000  
C 3  38105007.468   198422773.361       -1457.633          43.000    38105000.715   153433047.041       -1127.037          49.000  
C 8  36547578.145   190312825.346       -1855.577          46.000    36547569.760   147161918.865       -1434.875          51.000  
C13  36485632.868   189990262.419       -1514.230          51.000    36485630.557   146912511.795       -1170.970          48.000  
C16  37801967.040   196844758.312       -1255.241          42.000    37801965.756   152212851.796        -970.738          44.000  
C24  25716079.795   133910375.419       -3873.026          42.000                                                                  
C 6  37819252.136                3      -1126.450          12.000    37819248.656   152282445.698        -872.747          41.000  
R10  20921724.915   111524568.587       -2697.487          48.000                                                                  
R 1  20634381.256   110302608.255        -102.834          37.000    20634384.799    85790923.078         -80.196          37.000  
R 8  20952455.979   112199449.899       -2441.810          48.000    20952454.987    87266233.380       -1899.103          46.000  
R17  23209463.786   124198730.441         -50.545          32.000    23209453.277    96598956.239         -40.009          34.000  
G18  21941076.866   115301173.392        -967.673          43.000    21941082.711    89845060.904        -753.929          39.000  
G24  21244698.983   111641642.789        1136.493          47.000    21244699.089    86993489.902         885.541          48.000  
E33  25679813.261   134948327.738       -3747.988          45.000    25679813.949   103401966.204       -2871.869          49.000  
C32  24719091.924   128718803.460         824.021          33.000                                                                  
C27  25630427.924   133464368.802       -3782.102          36.000                                                                  
R24  22080755.943   118075722.521       -3326.928          39.000    22080751.220                2      -2586.912          32.000  
R23  23176403.103   123978128.1452      -5308.701          41.000                                                                  
E 7  27439835.279   144197304.225       -3242.543          43.000    27439837.838   110488856.046       -2484.587          44.000  
E20  24483240.544   128660299.440       -1113.266          37.000                                                                  
G23  23395005.610   122941589.739        1667.146          40.000    23395006.777    95798641.502        1298.820          34.000  
C 9  39228756.144   204274440.4792      -1089.014          31.000                                                                  
J 1  39184788.666   205917447.640       -1235.815          46.000    39184786.134   160455150.032        -962.665          45.000  
E27                                                                  25784169.433   103822160.858        -148.554          37.000  
R11                                                                  20744655.484                3       1152.495          23.000  
J 3                                                                  37769047.299                3      -1461.864          26.000  
> 2021 10 15  4 45  0.0010000  0 30                     
G28  23982570.206                        -719.122          25.000                                                                  
G13  21526339.193   113121675.413       -3277.024          47.000                                                                  
G14  24338927.742   127901925.345       -1405.984          44.000    24338924.166    99663817.599       -1095.673          39.000  
G15  20558429.680   108035269.696       -1506.850          51.000    20558426.649    84183309.746       -1174.215          47.000  
J 7  37570884.683   197436331.322       -1421.792          40.000    37570882.550   153846490.176       -1108.159          46.000  
C 3  38105287.543   198424231.089       -1457.786          43.000    38105280.663   153434174.253       -1127.408          49.000  
C 8  36547934.380   190314681.304       -1855.969          46.000    36547926.172   147163354.027       -1435.423          51.000  
C13  36485923.622   189991777.034       -1514.799          51.000    36485921.374   146913682.990       -1171.259          48.000  
C16  37802208.088   196846013.826       -1255.747          42.000    37802206.712   152213822.636        -971.002          44.000  
C24  25716823.743   133914248.798       -3873.532          42.000                                                                  
R10  20922231.214   111527266.770       -2698.776          48.000                                                                  
R 1  20634400.319   110302711.372        -103.442          37.000    20634404.055    85791003.272         -80.640          37.000  
R 8  20952912.072   112201892.069       -2442.403          48.000    20952910.997    87268132.850       -1899.678          46.000  
R17  23209473.623                         -51.517          31.000    23209462.771    96598996.619         -41.046          34.000  
G18  21941261.074   115302141.632        -968.568          43.000    21941266.893    89845815.392        -754.991          39.000  
G24  21244482.788   111640506.832        1135.638          47.000    21244483.028    86992604.746         884.802          48.000  
E33  25680526.353   134952076.031       -3748.522          45.000    25680527.250   103404838.269       -2872.283          49.000  
C32  24718933.672   128717980.454         822.722          32.000                                                                  
C27  25631154.479   133468151.545       -3782.812          35.000                                                                  
R24  22081378.235   118079050.024       -3328.292          39.000    22081371.495                2      -2588.270          32.000  
R23  23177395.592   123983437.2212      -5309.434          41.000                                                                  
E 7  27440452.378   144200546.865       -3242.705          43.000    27440455.116   110491340.666       -2484.886          44.000  
E20  24483452.455   128661412.594       -1113.115          37.000                                                                  
G23  23394688.480   122939923.202        1666.206          41.000    23394689.659    95797342.895        1298.369          34.000  
C 9  39228965.047                2      -1087.720          30.000                                                                  
J 1  39185023.700   205918683.514       -1236.023          46.000    39185021.286   160456113.063        -963.110          45.000  
C 6                                                                  37819465.454   152283318.668        -873.218          41.000  
E27                                                                  25784206.474   103822309.891        -149.494          36.000  
R11                                                                  20744377.432                3       1150.907          23.000  
J 3                                                                  37769403.843                3      -1463.248          26.000  
> 2021 10 15  4 45  1.0010000  0 30                     
G28  23982706.930                        -720.826          25.000                                                                  
G13  21526962.840   113124952.626       -3277.484          47.000                                                                  
G14  24339195.384   127903331.942       -1406.861          44.000    24339191.849    99664913.647       -1096.347          39.000  
G15  20558716.519   108036776.896       -1507.477          51.000    20558713.500    84184484.187       -1174.601          47.000  
J 7  37571155.384   197437753.604       -1422.703          40.000    37571153.222   153847598.434       -1108.290          46.000  
C 3  38105567.600   198425689.063       -1457.925          43.000    38105560.660   153435301.645       -1127.488          48.000  
C 8  36548290.802   190316537.713       -1856.664          46.000    36548282.652   147164789.508       -1435.648          51.000  
C13  36486214.587   189993292.038       -1515.254          51.000    36486212.341   146914854.482       -1171.570          48.000  
C16  37802449.372   196847269.621       -1255.792          42.000    37802447.879   152214793.698        -971.223          44.000  
C24  25717567.673   133918122.761       -3874.148          42.000                                                                  
C 6  37819681.514                3      -1133.115          13.000    37819682.304   152284191.866        -873.188          42.000  
R10  20922737.513   111529966.053       -2699.768          48.000                                                                  
R 1  20634419.383   110302814.868        -103.981          36.000    20634423.375    85791083.748         -80.336          37.000  
R 8  20953368.261   112204334.738       -2442.858          48.000    20953367.103    87270032.706       -1899.962          46.000  
R17  23209483.401                         -53.075          31.000    23209472.479    96599037.784         -41.498          33.000  
G18  21941445.630   115303110.803        -969.596          43.000    21941451.182    89846570.592        -755.694          39.000  
G24  21244266.748   111639371.597        1134.875          47.000    21244266.923    86991720.141         884.302          48.000  
E33  25681239.633   134955824.852       -3749.170          45.000    25681240.633   103407710.739       -2872.668          49.000  
C32  24718775.552   128717157.674         822.760          33.000                                                                  
C27  25631881.063   133471934.658       -3783.112          35.000                                                                  
R24  22082000.597   118082378.424       -3328.784          39.000    22081995.343    91841832.4912      -2589.096          32.000  
R23  23178388.206   123988746.2061      -5309.513          41.000                                                                  
E 7  27441069.541   144203789.763       -3243.223          43.000    27441072.146   110493825.474       -2484.964          44.000  
E20  24483664.375   128662526.165       -1114.353          37.000                                                                  
G23  23394371.486   122938256.987        1666.159          40.000    23394372.514    95796044.573        1298.051          33.000  
C 9  39229172.368                2      -1088.080          30.000                                                                  
J 1  39185258.975   205919919.553       -1236.041          46.000    39185256.468   160457076.202        -963.098          45.000  
E27                                                                  25784243.680   103822459.381        -149.716          36.000  
R11                                                                  20744100.238                3       1151.255          24.000  
J 3                                                                  37769760.384                3      -1461.207          26.000  
> 2021 10 15  4 45  2.0010000  0 30                     
G28  23982843.742                        -721.482          25.000                                                                  
G13  21527586.607   113128230.344       -3278.072          47.000                                                                  
G14  24339463.221   127904739.426       -1407.954          44.000    24339459.625    99666010.377       -1097.010          39.000  
G15  20559003.355   108038284.710       -1508.149          51.000    20559000.379    84185659.099       -1175.197          47.000  
J 7  37571426.016   197439176.169       -1422.695          40.000    37571423.904   153848706.943       -1108.721          46.000  
C 3  38105847.749   198427147.346       -1458.282          43.000    38105840.666   153436429.289       -1127.842          49.000  
C 8  36548647.406   190318394.647       -1857.276          46.000    36548639.276   147166225.383       -1436.082          51.000  
C13  36486505.649   189994807.548       -1515.861          51.000    36486503.388   146916026.370       -1171.986          48.000  
C16  37802690.503   196848525.801       -1256.508          42.000    37802689.127   152215765.052        -971.726          43.000  
C24  25718311.710   133921997.370       -3874.944          42.000                                                                  
C 6  37819895.537                3      -1127.006          16.000    37819899.237   152285065.353        -873.684          41.000  
R10  20923244.069   111532666.548       -2701.186          48.000                                                                  
R 1  20634438.597   110302918.879        -104.698          36.000    20634442.770    85791164.635         -80.826          37.000  
R 8  20953824.499   112206777.976       -2443.536          48.000    20953823.372    87271932.997       -1900.630          46.000  
R17  23209493.293                         -54.990          29.000    23209482.394    96599079.807         -42.135          33.000  
G18  21941630.361   115304080.948        -970.628          43.000    21941635.575    89847326.523        -756.230          39.000  
G24  21244050.823   111638237.175        1134.039          47.000    21244051.002    86990836.179         883.496          48.000  
E33  25681953.243   134959574.268       -3749.778          45.000    25681954.157   103410583.670       -2873.113          49.000  
C32  24718617.363   128716335.229         822.502          32.000                                                                  
C27  25632607.618   133475718.218       -3783.590          35.000                                                                  
R24  22082623.159   118085707.834       -3329.972          39.000    22082619.464    91844422.0002      -2590.115          32.000  
R23  23179380.969   123994056.187       -5310.091          41.000                                                                  
E 7  27441686.602   144207032.969       -3243.184          43.000    27441689.348   110496310.534       -2485.199          44.000  
E20  24483876.363   128663640.084       -1113.996          37.000                                                                  
G23  23394054.396   122936591.213        1665.581          40.000    23394055.464    95794746.530        1298.063          33.000  
C 9  39229383.150   204277706.1422      -1089.771          31.000                                                                  
J 1  39185494.240   205921155.815       -1236.395          46.000    39185491.745   160458039.530        -963.428          45.000  
E27                                                                  25784280.915   103822609.424        -150.716          36.000  
R11                                                                  20743823.809                3       1150.653          24.000  
J 3                                                                  37770117.973                3      -1462.717          26.000  
> 2021 10 15  4 45  3.0010000  0 30                     
G28  23982980.903                        -721.814          26.000                                                                  
G13  21528210.509   113131508.733       -3278.495          48.000                                                                  
G14  24339731.225   127906147.945       -1408.308          44.000    24339727.771    99667107.957       -1098.063          39.000  
G15  20559290.366   108039793.336       -1508.794          51.000    20559287.526    84186834.652       -1175.671          47.000  
J 7  37571696.872   197440599.249       -1423.142          40.000    37571694.644   153849815.825       -1108.887          46.000  
C 3  38106127.902   198428606.134       -1458.743          43.000    38106120.809   153437557.313       -1128.086          49.000  
C 8  36549004.108   190320252.227       -1857.862          46.000    36548996.011   147167661.783       -1436.558          51.000  
C13  36486796.865   189996323.720       -1516.345          51.000    36486794.573   146917198.773       -1172.618          48.000  
C16  37802931.884   196849782.491       -1256.614          41.000    37802930.573   152216736.804        -971.678          43.000  
C24  25719055.942   133925872.809       -3875.582          42.000                                                                  
C 6  37820109.635                3      -1128.716          17.000    37820116.272   152285939.254        -874.020          41.000  
R10  20923750.825   111535368.396       -2702.468          47.000                                                                  
R 1  20634457.918   110303023.532        -104.891          35.000    20634462.255    85791246.039         -81.329          37.000  
R 8  20954280.814   112209221.955       -2444.159          48.000    20954279.822    87273833.862       -1900.958          46.000  
R17  23209503.684                         -56.344          29.000    23209492.555    96599122.900         -43.452          33.000  
G18  21941815.170   115305052.256        -971.751          43.000    21941820.288    89848083.399        -757.240          39.000  
G24  21243835.123   111637103.739        1133.038          47.000    21243835.263    86989952.980         882.983          48.000  
E33  25682666.886   134963324.474       -3750.426          45.000    25682667.871   103413457.199       -2873.626          49.000  
C32  24718459.389   128715513.336         821.711          33.000                                                                  
C27  25633334.357   133479502.365       -3783.673          35.000                                                                  
R24  22083246.051   118089038.417       -3331.038          38.000    22083242.327    91847012.4222      -2590.412          31.000  
R23  23180373.742   123999366.846       -5310.694          41.000                                                                  
E 7  27442303.943   144210276.703       -3243.732          43.000    27442306.637   110498795.984       -2485.444          44.000  
E20  24484088.558   128664754.614       -1114.780          37.000                                                                  
G23  23393737.521   122934926.033        1664.927          40.000    23393738.617    95793448.964        1298.079          33.000  
C 9  39229592.196   204278795.6052      -1089.337          31.000                                                                  
J 1  39185729.592   205922392.490       -1236.713          46.000    39185727.053   160459003.166        -963.647          45.000  
E27                                                                  25784318.388   103822760.166        -150.748          36.000  
R11                                                                  20743545.621                3       1152.197          24.000  
J 3                                                                  37770475.563                3      -1464.263          26.000  
> 2021 10 15  4 45  4.0010000  0 30                     
G28  23983118.050                        -723.019          26.000                                                                  
G13  21528834.517   113134787.773       -3279.543          48.000                                                                  
G14  24339999.534   127907557.531       -1409.930          44.000    24339996.030    99668206.319       -1098.895          39.000  
G15  20559577.535   108041302.733       -1509.897          51.000    20559574.779    84188010.807       -1176.528          47.000  
J 7  37571967.796   197442022.787       -1424.011          40.000    37571965.491   153850925.071       -1109.566          46.000  
C 3  38106408.039   198430065.379       -1459.831          43.000    38106401.026   153438685.687       -1128.700          49.000  
C 8  36549361.005   190322110.456       -1858.603          46.000    36549352.820   147169098.689       -1437.299          52.000  
C13  36487088.166   189997840.516       -1517.273          51.000    36487085.810   146918371.658       -1173.340          48.000  
C16  37803173.463   196851039.688       -1257.297          41.000    37803171.971   152217708.958        -972.470          43.000  
C24  25719800.302   133929749.024       -3876.598          42.000                                                                  
C 6  37820324.463                3      -1133.731          18.000    37820333.430   152286813.553        -874.602          42.000  
R10  20924257.934   111538071.588       -2704.000          47.000                                                                  
R 1  20634477.269   110303128.831        -105.764          35.000    20634481.935    85791327.975         -82.376          37.000  
R 8  20954737.425   112211666.649       -2445.310          48.000    20954736.279    87275735.286       -1901.722          46.000  
R17  23209514.351                         -57.699          28.000    23209502.824    96599166.927         -44.975          33.000  
G18  21942000.309   115306024.698        -973.133          42.000    21942005.183    89848841.149        -758.237          39.000  
G24  21243619.644   111635971.240        1131.982          47.000    21243619.760    86989070.521         882.037          48.000  
E33  25683380.826   134967075.429       -3751.507          45.000    25683381.514   103416331.304       -2874.526          49.000  
C32  24718301.512   128714691.917         820.870          32.000                                                                  
C27  25634061.189   133483287.180       -3785.040          34.000                                                                  
R24  22083869.043   118092370.180       -3332.572          38.000    22083865.466                2      -2591.862          31.000  
R23  23181366.621   124004678.151       -5311.766          41.000                                                                  
E 7  27442921.284   144213520.883       -3244.413          43.000    27442924.041   110501281.791       -2486.023          44.000  
E20  24484300.639   128665869.677       -1115.432          37.000                                                                  
G23  23393420.773   122933261.394        1664.218          40.000    23393421.907    95792151.901        1296.400          33.000  
C 9  39229801.465   204279885.622       -1090.607          31.000                                                                  
J 1  39185965.035   205923629.540       -1237.372          46.000    39185962.469   160459967.107        -964.337          45.000  
E27                                                                  25784356.325   103822911.599        -151.576          36.000  
R11                                                                  20743267.968                3       1149.621          23.000  
J 3                                                                  37770832.134                3      -1463.310          26.000  
> 2021 10 15  4 45  5.0010000  0 30                     
G28  23983255.456                        -723.516          26.000                                                                  
G13  21529458.609   113138067.542       -3280.195          48.000                                                                  
G14  24340267.887   127908968.245       -1411.354          44.000    24340264.388    99669305.558       -1099.822          39.000  
G15  20559864.839   108042812.999       -1510.673          51.000    20559862.057    84189187.637       -1177.108          47.000  
J 7  37572238.753   197443446.868       -1423.960          40.000    37572236.564   153852034.760       -1109.902          46.000  
C 3  38106688.412   198431525.161       -1460.040          43.000    38106681.360   153439814.487       -1128.961          49.000  
C 8  36549718.037   190323969.415       -1859.314          46.000    36549709.873   147170536.160       -1437.829          51.000  
C13  36487379.593   189999358.035       -1517.808          51.000    36487377.186   146919545.101       -1173.696          48.000  
C16  37803415.008   196852297.525       -1258.188          41.000    37803413.449   152218681.572        -972.805          43.000  
C24  25720544.878   133933626.118       -3877.349          42.000                                                                  
C 6  37820540.573                3      -1138.762          17.000    37820550.754   152287688.340        -875.037          42.000  
R10  20924765.383   111540776.224       -2705.256          47.000                                                                  
R 1  20634496.743   110303234.917        -106.073          35.000    20634501.679    85791410.447         -82.493          37.000  
R 8  20955194.091   112214112.139       -2445.752          48.000    20955192.925    87277637.340       -1902.209          46.000  
R17  23209525.340                         -58.754          27.000    23209513.300    96599212.030         -45.020          34.000  
G18  21942185.656   115306998.361        -974.161          42.000    21942190.301    89849599.842        -758.967          40.000  
G24  21243404.380   111634839.804        1131.006          47.000    21243404.375    86988188.886         881.232          48.000  
E33  25684094.612   134970827.214       -3752.015          45.000    25684095.540   103419206.055       -2875.052          49.000  
C32  24718143.862   128713871.121         820.343          32.000                                                                  
C27  25634788.139   133487072.674       -3786.256          34.000                                                                  
R24  22084492.168   118095703.214       -3333.485          38.000    22084488.684                1      -2593.414          31.000  
R23  23182359.570   124009990.192       -5312.432          41.000                                                                  
E 7  27443538.675   144216765.650       -3244.713          43.000    27443541.282   110503768.033       -2486.357          44.000  
E20  24484512.764   128666985.413       -1115.491          37.000                                                                  
G23  23393104.126   122931597.424        1663.820          40.000    23393105.281    95790855.284        1296.297          32.000  
C 9  39230010.856                       -1090.717          31.000                                                                  
J 1  39186200.437   205924867.066       -1237.946          46.000    39186197.989   160460931.397        -964.368          45.000  
E27                                                                  25784393.922   103823063.752        -152.517          36.000  
R11                                                                  20742990.265                3       1148.495          23.000  
J 3                                                                  37771190.527                3      -1462.929          26.000  
> 2021 10 15  4 45  6.0010000  0 30                     
G28  23983393.311                        -725.239          27.000                                                                  
G13  21530082.854   113141348.182       -3281.109          47.000                                                                  
G14  24340536.543   127910380.154       -1412.029          43.000    24340533.059    99670405.783       -1100.880          39.000  
G15  20560152.545   108044324.258       -1511.704          51.000    20560149.540    84190365.247       -1177.994          47.000  
J 7  37572509.869   197444871.646       -1425.126          40.000    37572507.776   153853144.964       -1110.482          46.000  
C 3  38106968.919   198432985.632       -1460.894          43.000    38106961.873   153440943.803       -1129.495          48.000  
C 8  36550075.214   190325829.269       -1860.202          46.000    36550067.068   147171974.314       -1438.519          52.000  
C13  36487671.153   190000876.411       -1518.813          51.000    36487668.861   146920719.206       -1174.395          48.000  
C16  37803656.836   196853556.047       -1258.948          41.000    37803655.156   152219654.759        -973.480          43.000  
C24  25721289.705   133937504.227       -3878.232          42.000                                                                  
C 6  37820759.233                3      -1128.426          18.000    37820768.149   152288563.660        -875.449          42.000  
R10  20925272.897   111543482.416       -2706.892          47.000                                                                  
R 1  20634516.518   110303341.860        -107.304          34.000    20634521.696    85791493.642         -83.427          37.000  
R 8  20955651.007   112216558.568       -2446.890          48.000    20955649.792    87279540.121       -1903.127          46.000  
R17  23209536.422                         -60.335          26.000    23209524.344    96599258.324         -46.766          33.000  
G18  21942371.209   115307973.387        -975.628          42.000    21942375.688    89850359.599        -760.311          40.000  
G24  21243189.377   111633709.538        1129.742          46.000    21243189.300    86987308.154         880.359          48.000  
E33  25684808.750   134974579.988       -3753.252          45.000    25684809.607   103422081.549       -2875.787          49.000  
C32  24717986.419   128713050.948         819.342          32.000                                                                  
C27  25635515.259   133490858.937       -3786.648          34.000                                                                  
R24  22085115.666   118099037.644       -3335.201          37.000    22085112.007                       -2593.872          31.000  
R23  23183352.802   124015303.088       -5313.570          41.000                                                                  
E 7  27444156.212   144220011.102       -3245.664          43.000    27444158.887   110506254.815       -2487.063          44.000  
E20  24484725.249   128668101.946       -1117.083          37.000                                                                  
G23  23392787.727   122929934.248        1662.714          40.000    23392788.744    95789559.283        1295.770          33.000  
C 9  39230220.429                       -1091.461          30.000                                                                  
J 1  39186436.133   205926105.165       -1238.269          46.000    39186433.607   160461896.165        -964.923          45.000  
E27                                                                  25784431.815   103823216.764        -153.505          36.000  
R11                                                                  20742713.671                3       1147.722          23.000  
J 3                                                                  37771547.196                3      -1463.692          26.000  
> 2021 10 15  4 45  7.0010000  0 30                     
G28  23983531.315                        -726.617          27.000                                                                  
G13  21530707.275   113144629.586       -3281.689          47.000                                                                  
G14  24340805.423   127911793.294       -1413.810          43.000    24340801.956    99671506.898       -1101.508          39.000  
G15  20560440.308   108045836.424       -1512.563          51.000    20560437.261    84191543.557       -1178.583          47.000  
J 7  37572781.030   197446297.007       -1425.482          40.000    37572779.048   153854255.646       -1111.047          46.000  
C 3  38107249.440   198434446.680       -1461.212          43.000    38107242.424   153442073.590       -1129.944          48.000  
C 8  36550432.579   190327689.917       -1860.945          46.000    36550424.402   147173413.077       -1438.988          52.000  
C13  36487962.807   190002395.587       -1519.479          51.000    36487960.527   146921893.928       -1174.936          48.000  
C16  37803898.743   196854815.226       -1259.367          41.000    37803896.980   152220628.430        -973.798          43.000  
C24  25722034.638   133941383.278       -3879.284          42.000                                                                  
C 6  37820979.202                3      -1136.141          20.000    37820985.715   152289439.512        -875.938          42.000  
R10  20925780.884   111546190.076       -2708.357          47.000                                                                  
R 1  20634536.249   110303449.600        -107.769          34.000    20634541.769    85791577.460         -83.990          36.000  
R 8  20956107.996   112219005.849       -2447.669          48.000    20956106.835    87281443.564       -1903.760          46.000  
R17  23209547.731                         -61.294          25.000    23209535.492    96599305.712         -48.019          33.000  
G18  21942557.033   115308949.671        -976.765          42.000    21942561.346    89851120.360        -761.469          40.000  
G24  21242974.398   111632580.356        1128.638          47.000    21242974.434    86986428.273         879.498          48.000  
E33  25685522.946   134978333.636       -3753.921          45.000    25685523.923   103424957.718       -2876.471          49.000  
C32  24717828.976                         820.205          31.000                                                                  
C27  25636242.523   133494645.954       -3787.268          34.000                                                                  
R24  22085739.459   118102373.319       -3335.953          37.000    22085735.629                       -2594.768          31.000  
R23  23184346.081   124020616.738       -5314.059          42.000                                                                  
E 7  27444774.092   144223257.156       -3246.080          43.000    27444776.527   110508742.042       -2487.356          44.000  
E20  24484937.748   128669219.125       -1117.087          37.000                                                                  
G23  23392471.367   122928271.758        1661.987          40.000    23392472.347    95788263.833        1295.518          32.000  
C 9  39230429.908                       -1092.534          30.000                                                                  
J 1  39186671.990   205927343.788       -1238.782          46.000    39186669.262   160462861.318        -965.131          45.000  
E27                                                                  25784470.035   103823370.533        -154.157          36.000  
R11                                                                  20742436.618                3       1141.316          23.000  
J 3                                                                  37771904.745                3      -1464.116          26.000  
> 2021 10 15  4 45  8.0010000  0 30                     
G28  23983669.357                        -727.136          27.000                                                                  
G13  21531331.902   113147911.690       -3282.376          48.000                                                                  
G14  24341074.522   127913207.502       -1415.196          43.000    24341071.051    99672608.849       -1102.123          39.000  
G15  20560728.196   108047349.404       -1513.462          51.000    20560725.358    84192722.500       -1179.331          47.000  
J 7  37573052.323   197447722.896       -1426.147          40.000    37573050.348   153855366.723       -1111.353          46.000  
C 3  38107530.063   198435908.273       -1462.009          43.000    38107523.084   153443203.779       -1130.490          49.000  
C 8  36550789.946   190329551.262       -1861.733          46.000    36550781.842   147174852.391       -1439.626          52.000  
C13  36488254.712   190003915.444       -1520.227          51.000    36488252.420   146923069.174       -1175.496          48.000  
C16  37804140.746   196856074.975       -1260.062          41.000    37804138.928   152221602.547        -974.532          43.000  
C24  25722779.816   133945263.160       -3880.345          42.000                                                                  
C 6  37821198.674                3      -1134.723          21.000    37821203.347   152290315.796        -876.463          42.000  
R10  20926289.148   111548899.127       -2709.736          47.000                                                                  
R 1  20634556.060   110303558.116        -109.029          34.000    20634562.010    85791661.832         -84.758          36.000  
R 8  20956565.142   112221453.905       -2448.427          48.000    20956563.929    87283347.597       -1904.236          46.000  
R17  23209557.712                3        -63.420          23.000    23209546.975    96599354.081         -48.992          34.000  
G18  21942743.115   115309927.152        -978.160          42.000    21942747.270    89851882.008        -762.256          40.000  
G24  21242759.722   111631452.179        1127.722          47.000    21242759.715    86985549.177         878.790          48.000  
E33  25686237.372   134982088.091       -3754.876          45.000    25686238.385   103427834.506       -2877.117          49.000  
C32  24717671.551   128711412.483         818.506          32.000                                                                  
C27  25636969.878   133498433.604       -3787.888          34.000                                                                  
R24  22086363.442   118105710.267       -3337.859          36.000    22086359.564                       -2595.406          31.000  
R23  23185339.586   124025931.088       -5314.911          41.000                                                                  
E 7  27445392.003   144226503.754       -3246.957          43.000    27445394.495   110511229.676       -2487.792          44.000  
E20  24485150.397   128670336.958       -1118.056          37.000                                                                  
G23  23392155.131   122926609.887        1661.364          40.000    23392156.179    95786968.887        1294.594          33.000  
C 9  39230639.658                       -1092.133          30.000                                                                  
J 1  39186907.734   205928582.844       -1239.252          46.000    39186905.134   160463826.819        -965.649          45.000  
E27                                                                  25784508.388   103823525.018        -154.852          36.000  
R11                                                                  20742158.789                3       1145.524          22.000  
J 3                                                                  37772263.647                3      -1465.051          26.000  
> 2021 10 15  4 45  9.0010000  0 30                     
G28  23983807.533   126035792.392        -728.400          28.000                                                                  
G13  21531956.509   113151194.462       -3283.034          48.000                                                                  
G14  24341343.786   127914622.750       -1415.896          43.000    24341340.340    99673711.656       -1103.362          39.000  
G15  20561016.340   108048863.187       -1514.081          51.000    20561013.404    84193902.075       -1179.903          47.000  
J 7  37573323.745   197449149.268       -1426.520          40.000    37573321.731   153856478.186       -1111.733          46.000  
C 3  38107810.870   198437370.322       -1462.364          43.000    38107803.853   153444334.335       -1130.814          49.000  
C 8  36551147.585   190331413.289       -1862.275          46.000    36551139.388   147176292.231       -1440.111          52.000  
C13  36488546.662   190005435.962       -1520.868          51.000    36488544.409   146924244.943       -1176.058          48.000  
C16  37804382.644   196857335.233       -1260.202          40.000    37804381.009   152222577.056        -974.710          43.000  
C24  25723525.056   133949143.844       -3880.876          42.000                                                                  
C 6  37821418.461                3      -1137.063          22.000    37821421.134   152291192.508        -877.104          42.000  
R10  20926797.654   111551609.536       -2711.005          47.000                                                                  
R 1  20634576.289   110303667.237        -109.580          34.000    20634582.413    85791746.752         -85.904          36.000  
R 8  20957022.424   112223902.719       -2449.122          48.000    20957021.247    87285252.234       -1904.859          46.000  
R17  23209566.110                3        -62.726          21.000    23209558.553    96599403.463         -49.597          34.000  
G18  21942929.438   115310905.786        -979.260          42.000    21942933.263    89852644.571        -763.000          40.000  
G24  21242545.063   111630324.981        1126.831          47.000    21242545.181    86984670.846         877.881          48.000  
E33  25686951.945   134985843.313       -3755.636          45.000    25686953.032   103430711.885       -2877.689          49.000  
C32  24717514.275   128710594.046         817.788          32.000                                                                  
C27  25637697.334   133502221.889       -3788.725          34.000                                                                  
R24  22086987.596   118109048.374       -3338.670          36.000    22086983.783                       -2597.080          31.000  
R23  23186333.275   124031246.086       -5315.514          42.000                                                                  
E 7  27446009.898   144229750.816       -3247.275          43.000    27446012.383   110513717.709       -2488.444          44.000  
E20  24485363.079   128671455.372       -1118.724          37.000                                                                  
G23  23391839.088   122924948.611        1660.954          40.000    23391840.049    95785674.377        1294.593          32.000  
C 9  39230849.717                       -1093.561          31.000                                                                  
J 1  39187143.631   205929822.294       -1239.490          46.000    39187141.068   160464792.634        -966.125          45.000  
E27                                                                  25784547.024   103823680.186        -155.419          36.000  
R11                                                                  20741882.636                3       1144.891          22.000  
J 3                                                                  37772620.625                3      -1465.569          26.000  
> 2021 10 15  4 45 10.0010000  0 29                     
G28  23983945.825                        -729.504          28.000                                                                  
G13  21532581.323   113154477.901       -3283.528          47.000                                                                  
G14  24341613.332   127916039.032       -1416.293          43.000    24341609.776    99674815.262       -1103.701          39.000  
G15  20561304.545   108050377.773       -1514.826          51.000    20561301.668    84195082.273       -1180.390          47.000  
J 7  37573595.358   197450576.140       -1426.926          40.000    37573593.267   153857590.029       -1111.996          46.000  
C 3  38108091.706   198438832.873       -1462.661          43.000    38108084.773   153445465.279       -1131.001          49.000  
C 8  36551505.328   190333276.007       -1862.852          46.000    36551497.103   147177732.601       -1440.523          52.000  
C13  36488838.976   190006957.150       -1521.284          51.000    36488836.576   146925421.222       -1176.385          48.000  
C16  37804624.757   196858596.045       -1260.893          40.000    37804623.158   152223552.002        -975.030          43.000  
C24  25724270.490   133953025.364       -3881.609          42.000                                                                  
C 6  37821638.223                3      -1136.368          23.000    37821639.042   152292069.612        -877.103          42.000  
R10  20927306.373   111554321.321       -2712.521          47.000                                                                  
R 1  20634596.402   110303777.027        -109.778          33.000    20634602.777    85791832.113         -85.635          36.000  
R 8  20957479.797   112226352.262       -2449.731          48.000    20957478.678    87287157.436       -1905.310          46.000  
R17  23209579.252                3        -60.469          21.000    23209570.515    96599453.925         -51.424          34.000  
G18  21943115.935   115311885.560        -979.969          42.000    21943119.610    89853408.047        -763.858          40.000  
G24  21242330.706   111629198.772        1125.934          47.000    21242330.794    86983793.278         877.374          48.000  
E33  25687666.725   134989599.320       -3756.201          45.000    25687667.680   103433589.863       -2878.135          49.000  
C32  24717357.157   128709776.097         818.235          32.000                                                                  
C27  25638424.921   133506010.779       -3788.783          34.000                                                                  
R24  22087611.946   118112387.706       -3339.649          35.000    22087608.087                       -2596.832          30.000  
R23  23187326.983   124036561.746       -5315.809          42.000                                                                  
E 7  27446628.009   144232998.406       -3247.635          43.000    27446630.301   110516206.102       -2488.401          44.000  
E20  24485576.098   128672574.355       -1118.827          37.000                                                                  
G23  23391523.108   122923287.919        1660.681          40.000    23391523.991                        1293.190          32.000  
C 9  39231059.740                       -1094.452          31.000                                                                  
J 1  39187379.555   205931062.157       -1239.923          46.000    39187376.940   160465758.757        -966.138          45.000  
E27                                                                  25784585.613   103823836.048        -156.168          36.000  
J 3                                                                  37772978.593                3      -1465.032          26.000  
> 2021 10 15  4 45 11.0010000  0 29                     
G28  23984084.573   126037250.852        -730.328          28.000                                                                  
G13  21533206.270   113157762.160       -3284.623          48.000                                                                  
G14  24341883.073   127917456.547       -1418.239          44.000    24341879.497    99675919.822       -1104.906          39.000  
G15  20561592.955   108051893.292       -1515.981          51.000    20561590.138    84196263.193       -1181.307          47.000  
J 7  37573867.063   197452003.635       -1428.034          40.000    37573864.934   153858702.346       -1112.418          46.000  
C 3  38108372.722   198440296.035       -1463.275          43.000    38108365.761   153446596.687       -1131.489          49.000  
C 8  36551863.133   190335139.522       -1863.885          46.000    36551854.976   147179173.588       -1441.350          52.000  
C13  36489131.312   190008479.151       -1522.485          51.000    36489128.879   146926598.125       -1177.256          48.000  
C16  37804866.956   196859857.512       -1261.733          40.000    37804865.396   152224527.435        -975.522          43.000  
C24  25725016.171   133956907.848       -3883.053          42.000                                                                  
C 6  37821858.910                3      -1126.920          23.000    37821857.061   152292947.264        -877.999          42.000  
R10  20927815.422   111557034.591       -2713.971          47.000                                                                  
R 1  20634616.772   110303887.675        -111.478          33.000    20634623.344    85791918.122         -86.306          35.000  
R 8  20957937.399   112228802.683       -2450.751          48.000    20957936.221    87289063.320       -1906.252          46.000  
R17  23209588.998                3        -57.983          19.000    23209582.915    96599505.407         -51.434          34.000  
G18  21943302.678   115312866.641        -981.630          42.000    21943306.173    89854172.519        -764.937          40.000  
G24  21242116.658   111628073.668        1124.463          47.000    21242116.713    86982916.573         876.385          48.000  
E33  25688381.691   134993356.243       -3757.411          45.000    25688382.607   103436468.528       -2878.934          49.000  
C32  24717200.184                         817.659          32.000                                                                  
C27  25639152.611   133509800.450       -3789.829          34.000                                                                  
R24  22088236.597   118115728.372       -3340.912          35.000    22088232.846                       -2598.122          30.000  
R23  23188320.845   124041878.220       -5316.951          42.000                                                                  
E 7  27447246.131   144236246.612       -3248.371          43.000    27447248.497   110518694.982       -2489.016          44.000  
E20  24485789.121   128673694.093       -1120.728          37.000                                                                  
G23  23391207.208   122921627.953        1659.966          40.000    23391208.081                        1294.266          32.000  
C 9  39231269.849                       -1095.087          31.000                                                                  
J 1  39187615.601   205932302.555       -1240.594          46.000    39187613.016   160466725.294        -966.748          45.000  
E27                                                                  25784624.458   103823992.685        -156.963          36.000  
J 3                                                                  37773335.615                3      -1465.688          25.000  
> 2021 10 15  4 45 12.0010000  0 29                     
G28  23984223.425   126037981.529        -731.226          29.000                                                                  
G13  21533831.418   113161046.986       -3285.372          47.000                                                                  
G14  24342152.970   127918875.023       -1419.095          44.000    24342149.491    99677025.112       -1105.920          39.000  
G15  20561881.512   108053409.523       -1516.772          51.000    20561878.643    84197444.673       -1181.901          47.000  
J 7  37574138.748   197453431.507       -1428.141          40.000    37574136.641   153859814.997       -1113.022          46.000  
C 3  38108653.689   198441759.603       -1463.802          43.000    38108646.806   153447728.403       -1131.863          49.000  
C 8  36552221.096   190337003.627       -1864.529          46.000    36552212.953   147180615.036       -1441.917          52.000  
C13  36489423.616   190010001.727       -1523.053          51.000    36489421.231   146927775.480       -1177.828          48.000  
C16  37805109.465   196861119.424       -1262.115          40.000    37805107.732   152225503.237        -976.061          42.000  
C24  25725761.900   133960791.034       -3883.720          42.000                                                                  
C 6  37822078.894                3      -1129.581          24.000    37822075.209   152293825.249        -878.227          42.000  
R10  20928324.699   111559749.155       -2715.501          47.000                                                                  
R 1  20634637.249   110303998.837        -111.822          33.000    20634644.120    85792004.592         -86.894          35.000  
R 8  20958395.154   112231253.775       -2451.558          48.000    20958393.997    87290969.718       -1906.703          46.000  
R17  23209599.206                3        -60.114          19.000    23209595.374    96599557.869         -53.130          33.000  
G18  21943489.610   115313848.799        -982.817          42.000    21943492.957    89854937.840        -765.750          41.000  
G24  21241902.685   111626949.458        1123.663          46.000    21241902.791    86982040.571         875.439          48.000  
E33  25689096.686   134997113.832       -3758.093          45.000    25689097.689   103439347.730       -2879.454          49.000  
C32  24717043.295   128708142.004         816.465          32.000                                                                  
C27  25639880.435   133513590.676       -3790.856          33.000                                                                  
R24  22088861.213   118119070.119       -3342.301          35.000    22088857.642                       -2600.435          30.000  
R23  23189314.848   124047195.265       -5317.448          42.000                                                                  
E 7  27447864.352   144239495.236       -3248.981          43.000    27447866.587   110521184.186       -2489.464          44.000  
E20  24486002.292   128674814.254       -1120.247          37.000                                                                  
G23  23390891.316   122919968.497        1659.178          40.000    23390892.353    95781793.778        1292.868          32.000  
C 9  39231480.169                       -1095.300          31.000                                                                  
J 1  39187851.666   205933543.257       -1240.973          46.000    39187849.031   160467692.081        -967.010          45.000  
E27                                                                  25784663.585   103824149.954        -157.977          36.000  
J 3                                                                  37773693.699                3      -1466.323          25.000  
> 2021 10 15  4 45 13.0010000  0 29                     
G28  23984362.368   126038713.140        -732.349          29.000                                                                  
G13  21534456.656   113164332.450       -3285.996          47.000                                                                  
G14  24342423.015   127920294.522       -1420.446          44.000    24342419.603    99678131.206       -1106.328          39.000  
G15  20562170.086   108054926.518       -1517.512          51.000    20562167.362    84198626.746       -1182.371          47.000  
J 7  37574410.625   197454859.871       -1429.031          40.000    37574408.371   153860927.984       -1113.180          46.000  
C 3  38108934.819   198443223.634       -1464.421          43.000    38108927.955   153448860.487       -1132.307          48.000  
C 8  36552579.183   190338868.392       -1865.212          46.000    36552571.045   147182056.977       -1442.327          52.000  
C13  36489716.098   190011524.936       -1523.703          51.000    36489713.739   146928953.317       -1178.119          48.000  
C16  37805351.838   196862381.868       -1263.136          40.000    37805350.198   152226479.423        -976.564          42.000  
C24  25726507.828   133964675.027       -3884.738          42.000                                                                  
C 6  37822299.406                3      -1135.981          25.000    37822293.359   152294703.633        -878.533          42.000  
R10  20928834.182   111562465.057       -2716.788          47.000                                                                  
R 1  20634657.905   110304110.632        -111.965          32.000    20634664.943    85792091.561         -87.188          35.000  
R 8  20958853.040   112233705.557       -2452.182          48.000    20958851.803    87292876.662       -1907.246          46.000  
R17  23209610.664                3        -61.841          19.000    23209608.225    96599611.302         -53.928          33.000  
G18  21943676.871   115314832.078        -984.002          41.000    21943679.855    89855704.027        -766.720          41.000  
G24  21241688.937   111625826.200        1122.583          46.000    21241689.071    86981165.303         874.591          48.000  
E33  25689811.744   135000872.189       -3758.823          45.000    25689812.952   103442227.504       -2880.164          49.000  
C32  24716886.563                         815.663          32.000                                                                  
C27  25640608.436   133517381.457       -3791.631          33.000                                                                  
R24  22089485.968   118122412.993       -3343.589          34.000    22089482.454                       -2600.615          30.000  
R23  23190308.918   124052512.969       -5318.295          41.000                                                                  
E 7  27448482.448   144242744.319       -3249.275          43.000    27448485.045   110523673.750       -2489.851          44.000  
E20  24486215.841   128675935.043       -1121.382          38.000                                                                  
G23  23390575.608   122918309.613        1658.059          40.000    23390576.668    95780501.157        1291.813          32.000  
C 9  39231690.744                       -1095.251          31.000                                                                  
J 1  39188087.796   205934784.352       -1241.498          46.000    39188085.143   160468659.158        -967.181          45.000  
E27                                                                  25784702.956   103824307.889        -158.087          36.000  
J 3                                                                  37774051.942                3      -1468.021          25.000  
> 2021 10 15  4 45 14.0010000  0 29                     
G28  23984501.504                        -733.203          29.000                                                                  
G13  21535082.019   113167618.624       -3286.686          47.000                                                                  
G14  24342693.375   127921715.135       -1421.908          44.000    24342689.837    99679238.190       -1107.726          39.000  
G15  20562458.901   108056444.357       -1518.530          51.000    20562456.179    84199809.480       -1183.156          47.000  
J 7  37574682.539   197456288.741       -1429.355          40.000    37574680.233   153862041.399       -1113.842          46.000  
C 3  38109215.995   198444688.182       -1465.001          43.000    38109209.199   153449992.966       -1132.770          48.000  
C 8  36552937.490   190340733.872       -1866.083          46.000    36552929.204   147183499.494       -1443.020          52.000  
C13  36490008.795   190013048.843       -1524.487          51.000    36490006.424   146930131.693       -1178.686          48.000  
C16  37805594.373   196863644.880       -1263.615          40.000    37805592.723   152227456.061        -977.095          42.000  
C24  25727253.762   133968559.845       -3885.481          42.000                                                                  
C 6  37822517.489                3      -1136.784          26.000    37822511.673   152295582.492        -879.292          42.000  
R10  20929344.006   111565182.360       -2718.111          47.000                                                                  
R 1  20634678.728   110304223.195        -113.361          32.000    20634685.908    85792179.078         -88.221          34.000  
R 8  20959310.958   112236158.114       -2453.065          48.000    20959309.777    87294784.203       -1907.922          46.000  
R17  23209624.177                3        -72.646          20.000    23209621.276    96599665.796         -54.948          34.000  
G18  21943864.335   115315816.559        -985.165          41.000    21943867.169    89856471.159        -767.819          41.000  
G24  21241475.482   111624703.948        1121.600          47.000    21241475.463    86980290.825         873.926          48.000  
E33  25690527.089   135004631.342       -3759.768          45.000    25690528.238   103445107.888       -2880.796          49.000  
C32  24716730.016   128706509.890         814.978          32.000                                                                  
C27  25641336.498   133521172.897       -3792.122          33.000                                                                  
R24  22090111.123   118125757.116       -3345.032          34.000    22090107.642                       -2601.583          30.000  
R23  23191303.239   124057831.376       -5318.899          41.000                                                                  
E 7  27449100.778   144245993.950       -3250.130          43.000    27449103.375   110526163.720       -2490.288          44.000  
E20  24486429.347   128677056.423       -1122.098          38.000                                                                  
G23  23390260.076   122916651.342        1657.853          40.000    23390261.224    95779208.984        1292.242          32.000  
C 9  39231901.158   204290819.481       -1095.953          31.000                                                                  
J 1  39188324.094   205936025.878       -1241.895          46.000    39188321.444   160469626.585        -967.688          45.000  
E27                                                                  25784742.291   103824466.556        -159.124          36.000  
J 3                                                                  37774408.829                3      -1467.128          25.000  
> 2021 10 15  4 45 15.0010000  0 29                     
G28  23984641.234   126040179.520        -734.692          30.000                                                                  
G13  21535707.499   113170905.582       -3287.209          47.000                                                                  
G14  24342963.864   127923136.854       -1422.233          44.000    24342960.474    99680346.031       -1108.285          39.000  
G15  20562747.884   108057963.089       -1519.052          51.000    20562745.146    84200992.911       -1183.695          47.000  
J 7  37574954.611   197457718.196       -1429.681          40.000    37574952.159   153863155.270       -1114.034          46.000  
C 3  38109497.419   198446153.311       -1465.166          43.000    38109490.487   153451125.906       -1133.035          49.000  
C 8  36553295.868   190342600.138       -1866.536          46.000    36553287.685   147184942.608       -1443.333          52.000  
C13  36490301.680   190014573.510       -1524.900          51.000    36490299.235   146931310.670       -1179.195          48.000  
C16  37805837.083   196864908.487       -1263.835          40.000    37805835.283   152228433.178        -977.326          42.000  
C24  25727999.943   133972445.605       -3886.194          42.000                                                                  
C 6  37822736.520                3      -1137.509          26.000    37822730.160   152296461.832        -879.456          42.000  
R10  20929854.044   111567901.141       -2719.251          47.000                                                                  
R 1  20634699.556   110304336.476        -112.903          32.000    20634706.977    85792267.213         -88.137          34.000  
R 8  20959769.113   112238611.485       -2453.596          48.000    20959767.920    87296692.379       -1908.332          46.000  
R17  23209640.346                3        -72.154          21.000    23209634.557    96599721.422         -56.286          34.000  
G18  21944052.072   115316802.324        -986.272          41.000    21944054.626    89857239.263        -768.313          41.000  
G24  21241262.119   111623582.788        1120.782          46.000    21241262.070    86979417.195         873.285          48.000  
E33  25691242.669   135008391.382       -3760.317          45.000    25691243.867   103447988.965       -2881.365          49.000  
C32  24716573.494   128705694.680         815.249          32.000                                                                  
C27  25642064.849   133524965.077       -3792.634          33.000                                                                  
R24  22090736.604   118129102.509       -3345.036          34.000    22090732.964                       -2601.760          29.000  
R23  23192297.709   124063150.571       -5319.577          41.000                                                                  
E 7  27449719.060   144249244.186       -3250.507          43.000    27449721.948   110528654.154       -2490.564          44.000  
E20  24486642.722   128678178.506       -1122.542          38.000                                                                  
G23  23389944.693   122914993.768        1657.364          40.000    23389945.812    95777917.381        1290.778          32.000  
C 9  39232111.623                       -1096.832          31.000                                                                  
J 1  39188560.382   205937267.909       -1242.145          46.000    39188557.864   160470594.405        -967.896          45.000  
E27                                                                  25784781.962   103824625.980        -159.821          36.000  
J 3                                                                  37774767.184                3      -1466.974          25.000  
> 2021 10 15  4 45 16.0010000  0 29                     
G28  23984780.918   126040914.212        -735.583          30.000                                                                  
G13  21536333.177   113174193.205       -3288.039          47.000                                                                  
G14  24343234.579   127924559.648       -1423.265          43.000    24343231.146    99681454.705       -1109.062          39.000  
G15  20563036.992   108059482.612       -1519.868          51.000    20563034.330    84202176.956       -1184.459          47.000  
J 7  37575226.647   197459148.119       -1429.676          40.000    37575224.231   153864269.514       -1114.438          46.000  
C 3  38109778.852   198447618.941       -1466.009          43.000    38109771.914   153452259.208       -1133.409          49.000  
C 8  36553654.353   190344467.075       -1867.190          46.000    36553646.271   147186386.246       -1443.918          52.000  
C13  36490594.657   190016098.848       -1525.579          51.000    36490592.090   146932490.161       -1179.718          48.000  
C16  37806079.945   196866172.662       -1264.716          40.000    37806078.017   152229410.710        -977.801          42.000  
C24  25728746.403   133976332.164       -3887.165          42.000                                                                  
C 6  37822954.768                2      -1137.680          27.000    37822948.648   152297341.560        -879.949          42.000  
R10  20930364.446   111570621.275       -2720.870          47.000                                                                  
R 1  20634720.581                        -114.636          32.000    20634728.209    85792355.866         -88.898          34.000  
R 8  20960227.407   112241065.581       -2454.475          48.000    20960226.210    87298601.114       -1909.023          46.000  
R17  23209653.951                3        -71.524          23.000    23209648.104    96599777.997         -57.288          33.000  
G18  21944239.975   115317789.190        -987.237          41.000    21944242.320    89858008.274        -769.482          41.000  
G24  21241048.855   111622462.601        1119.702          46.000    21241048.929    86978544.321         872.430          48.000  
E33  25691958.195   135012152.195       -3761.261          45.000    25691959.488   103450870.611       -2881.951          49.000  
C32  24716417.195   128704880.010         814.147          32.000                                                                  
C27  25642793.277   133528757.855       -3793.108          33.000                                                                  
R24  22091362.301   118132449.237       -3348.031          34.000    22091358.855                       -2603.461          29.000  
R23  23193292.265   124068470.384       -5320.354          41.000                                                                  
E 7  27450337.790   144252494.898       -3251.033          42.000    27450340.406   110531144.959       -2491.043          44.000  
E20  24486856.238   128679301.132       -1122.916          38.000                                                                  
G23  23389629.334   122913336.778        1656.693          39.000    23389630.484    95776626.222        1291.180          32.000  
C 9  39232322.408                       -1097.418          31.000                                                                  
J 1  39188796.766   205938510.331       -1242.596          46.000    39188794.292   160471562.527        -968.298          45.000  
E27                                                                  25784821.624   103824786.099        -160.349          36.000  
J 3                                                                  37775125.208                3      -1467.559          25.000  
> 2021 10 15  4 45 17.0010000  0 29                     
G28  23984921.016   126041649.889        -736.664          31.000                                                                  
G13  21536958.960   113177481.530       -3288.494          47.000                                                                  
G14  24343505.600   127925983.568       -1424.816          44.000    24343502.159    99682564.240       -1109.693          39.000  
G15  20563326.272   108061002.980       -1520.737          51.000    20563323.612    84203361.663       -1185.018          47.000  
J 7  37575498.813   197460578.643       -1430.748          40.000    37575496.521   153865384.170       -1114.820          46.000  
C 3  38110060.422   198449085.082       -1466.280          43.000    38110053.536   153453392.935       -1133.828          49.000  
C 8  36554013.087   190346334.729       -1867.824          46.000    36554004.955   147187830.435       -1444.304          52.000  
C13  36490887.621   190017624.870       -1526.343          51.000    36490885.109   146933670.171       -1180.189          48.000  
C16  37806322.826   196867437.386       -1264.959          39.000    37806320.911   152230388.669        -978.187          42.000  
C24  25729492.908   133980219.567       -3887.740          42.000                                                                  
C 6  37823176.374                2      -1138.322          28.000    37823167.287   152298221.776        -880.695          42.000  
R10  20930875.056   111573342.797       -2722.126          47.000                                                                  
R 1  20634741.534                        -115.453          31.000    20634749.617    85792445.104         -89.965          34.000  
R 8  20960685.818   112243520.471       -2455.127          48.000    20960684.629    87300510.480       -1909.584          46.000  
R17  23209670.169                3        -74.854          25.000    23209661.838    96599835.644         -57.686          33.000  
G18  21944428.126   115318777.307        -988.835          41.000    21944430.279    89858778.210        -770.287          41.000  
G24  21240835.852   111621343.437        1118.658          46.000    21240835.938    86977672.252         871.545          48.000  
E33  25692673.967   135015913.816       -3762.068          45.000    25692675.185   103453752.899       -2882.547          49.000  
C32  24716260.791   128704065.943         813.352          32.000                                                                  
C27  25643521.759   133532551.310       -3793.569          33.000                                                                  
R24  22091988.167   118135797.139       -3348.174          34.000    22091984.796                       -2604.678          29.000  
R23  23194286.742   124073790.919       -5320.845          41.000                                                                  
E 7  27450956.435   144255746.145       -3251.299          43.000    27450959.171   110533636.189       -2491.408          44.000  
E20  24487069.839   128680424.417       -1123.438          38.000                                                                  
G23  23389314.059   122911680.424        1656.126          39.000    23389315.239                        1290.556          32.000  
C 9  39232533.439                       -1096.887          31.000                                                                  
J 1  39189033.269   205939753.210       -1243.036          46.000    39189030.821   160472531.000        -968.665          45.000  
E27                                                                  25784861.638   103824946.939        -161.161          36.000  
J 3                                                                  37775483.296                3      -1468.522          25.000  
> 2021 10 15  4 45 18.0010000  0 29                     
G28  23985060.959   126042386.484        -737.225          30.000                                                                  
G13  21537584.789   113180770.483       -3289.164          47.000                                                                  
G14  24343776.829   127927408.463       -1425.512          43.000    24343773.330    99683674.552       -1110.654          39.000  
G15  20563615.772   108062524.096       -1521.457          51.000    20563613.017    84204546.943       -1185.491          47.000  
J 7  37575771.082   197462009.542       -1430.862          40.000    37575768.906   153866499.177       -1115.118          46.000  
C 3  38110341.959   198450551.669       -1466.913          43.000    38110335.214   153454526.981       -1134.132          49.000  
C 8  36554371.821   190348203.012       -1868.459          46.000    36554363.724   147189275.110       -1444.868          52.000  
C13  36491180.815   190019151.526       -1526.894          51.000    36491178.293   146934850.688       -1180.692          48.000  
C16  37806565.792   196868702.592       -1265.471          39.000    37806563.832   152231367.013        -978.364          42.000  
C24  25730239.477   133984107.754       -3888.402          42.000                                                                  
C 6  37823395.393                2      -1138.895          28.000    37823386.041   152299102.329        -880.875          42.000  
R10  20931385.845   111576065.613       -2723.427          47.000                                                                  
R 1  20634762.633                        -115.253          31.000    20634771.275    85792534.817         -90.069          34.000  
R 8  20961144.363   112245976.067       -2455.916          48.000    20961143.230    87302420.387       -1910.133          46.000  
R17  23209686.226                3        -77.521          26.000    23209676.042    96599894.239         -59.451          34.000  
G18  21944616.484   115319766.480        -989.556          41.000    21944618.337    89859549.029        -771.339          41.000  
G24  21240623.025   111620225.198        1117.908          46.000    21240623.135    86976800.897         870.978          48.000  
E33  25693389.918   135019676.154       -3762.452          45.000    25693391.260   103456635.739       -2883.078          49.000  
C32  24716104.360   128703252.271         813.712          33.000                                                                  
C27  25644250.326   133536345.362       -3795.420          32.000                                                                  
R24  22092614.502   118139146.182       -3348.894          34.000    22092610.817                       -2605.098          29.000  
R23  23195281.567   124079112.049       -5321.280          41.000                                                                  
E 7  27451575.331   144258997.860       -3251.780          43.000    27451578.021   110536127.745       -2491.602          44.000  
E20  24487283.768   128681548.230       -1124.217          38.000                                                                  
G23  23388999.037   122910024.586        1655.992          39.000    23389000.147    95774045.332        1289.460          32.000  
C 9  39232744.342   204295209.136       -1098.132          31.000                                                                  
J 1  39189269.858   205940996.424       -1243.280          46.000    39189267.344   160473499.740        -968.756          45.000  
E27                                                                  25784901.760   103825108.397        -161.682          36.000  
J 3                                                                  37775840.905                3      -1468.322          25.000  
> 2021 10 15  4 45 19.0010000  0 29                     
G28  23985201.493   126043124.020        -737.268          31.000                                                                  
G13  21538210.826   113184060.049       -3289.706          47.000                                                                  
G14  24344048.182   127928834.364       -1425.990          44.000    24344044.647    99684785.634       -1111.326          39.000  
G15  20563905.346   108064045.936       -1521.945          51.000    20563902.568    84205732.797       -1186.005          47.000  
J 7  37576043.450   197463440.905       -1431.455          40.000    37576041.276   153867614.511       -1115.345          46.000  
C 3  38110623.716   198452018.671       -1467.132          43.000    38110616.823   153455661.370       -1134.394          49.000  
C 8  36554730.696   190350071.913       -1869.150          46.000    36554722.638   147190720.246       -1445.237          52.000  
C13  36491474.084   190020678.779       -1527.246          51.000    36491471.637   146936031.651       -1181.131          48.000  
C16  37806808.962   196869968.295       -1265.657          39.000    37806806.875   152232345.733        -978.878          41.000  
C24  25730986.288   133987996.699       -3889.013          42.000                                                                  
C 6  37823615.217                2      -1139.416          29.000    37823604.915   152299983.277        -881.120          42.000  
R10  20931896.877   111578789.731       -2724.548          47.000                                                                  
R 1  20634783.695                        -116.410          31.000    20634792.949    85792624.994         -89.873          34.000  
R 8  20961603.043   112248432.353       -2456.561          48.000    20961601.905    87304330.828       -1910.663          46.000  
R17  23209702.509                3        -76.487          25.000    23209690.410    96599953.758         -59.441          33.000  
G18  21944805.047   115320756.781        -990.593          41.000    21944806.734    89860320.687        -772.080          41.000  
G24  21240410.396   111619107.890        1116.968          46.000    21240410.587    86975930.273         870.294          48.000  
E33  25694106.062   135023439.224       -3763.210          44.000    25694107.258   103459519.120       -2883.531          49.000  
C32  24715948.365   128702439.067         813.845          32.000                                                                  
C27  25644979.003                       -3795.123          32.000                                                                  
R24  22093240.964   118142496.383       -3351.000          34.000    22093237.233                       -2605.860          29.000  
R23  23196276.390   124084433.793       -5321.803          41.000                                                                  
E 7  27452194.061   144262250.010       -3252.218          42.000    27452196.941   110538619.645       -2491.921          44.000  
E20  24487498.049   128682672.534       -1124.101          38.000                                                                  
G23  23388684.022   122908369.324        1655.365          39.000    23388685.210    95772755.481        1289.570          32.000  
C 9  39232955.627   204296307.857       -1098.340          31.000                                                                  
J 1  39189506.456   205942239.983       -1243.298          46.000    39189503.993   160474468.759        -969.092          45.000  
E27                                                                  25784942.054   103825270.552        -162.583          36.000  
J 3                                                                  37776199.202                3      -1468.271          25.000  
> 2021 10 15  4 45 20.0010000  0 29                     
G28  23985342.111   126043862.390        -738.690          32.000                                                                  
G13  21538836.880   113187350.146       -3290.292          47.000                                                                  
G14  24344319.647   127930261.181       -1427.000          44.000    24344316.190    99685897.462       -1111.915          39.000  
G15  20564195.067   108065568.449       -1522.804          51.000    20564192.288    84206919.166       -1186.579          47.000  
J 7  37576315.895   197464872.596       -1431.744          40.000    37576313.782   153868730.122       -1115.659          46.000  
C 3  38110905.447   198453486.032       -1467.573          43.000    38110898.612   153456796.029       -1134.818          48.000  
C 8  36555089.727   190351941.355       -1869.681          46.000    36555081.678   147192165.823       -1445.726          52.000  
C13  36491767.305   190022206.559       -1528.021          51.000    36491765.069   146937213.028       -1181.584          48.000  
C16  37807052.073   196871234.347       -1266.052          39.000    37807049.933   152233324.748        -979.315          41.000  
C24  25731733.238   133991886.329       -3889.930          42.000                                                                  
C 6  37823835.907                2      -1140.337          29.000    37823823.824   152300864.552        -881.408          43.000  
R10  20932408.205   111581515.090       -2725.929          47.000                                                                  
R 1  20634804.926                        -116.536          31.000    20634814.730    85792715.595         -90.229          33.000  
R 8  20962061.868   112250889.259       -2457.271          48.000    20962060.760    87306241.753       -1911.177          46.000  
R17  23209719.094                3        -77.397          26.000    23209705.049    96600014.175         -60.192          33.000  
G18  21944993.819   115321748.101        -991.681          41.000    21944995.334    89861093.130        -772.521          42.000  
G24  21240197.953   111617991.421        1116.058          46.000    21240198.196    86975060.290         869.745          48.000  
E33  25694822.173   135027202.920       -3764.017          45.000    25694823.552   103462402.987       -2883.997          49.000  
C32  24715792.346   128701626.306         812.834          32.000                                                                  
C27  25645707.699   133543934.976       -3795.170          32.000                                                                  
R24  22093867.599   118145847.532       -3352.086          34.000    22093863.795                       -2606.877          29.000  
R23  23197271.321   124089756.067       -5322.588          41.000                                                                  
E 7  27452813.002   144265502.508       -3252.605          43.000    27452815.952   110541111.833       -2492.420          44.000  
E20  24487712.070   128683797.354       -1125.074          38.000                                                                  
G23  23388369.085   122906714.495        1654.492          39.000    23388370.354    95771465.964        1289.616          32.000  
C 9  39233166.776                       -1099.872          31.000                                                                  
J 1  39189743.142   205943483.822       -1243.909          46.000    39189740.749   160475437.973        -969.312          45.000  
E27                                                                  25784982.320   103825433.260        -163.072          36.000  
J 3                                                                  37776555.920                3      -1469.484          25.000  
